[{"@odata.etag":"","ItemInternalId":"1100485a-c70e-4991-a6fc-2c8c8795583f","Full Name":"Folkestone Academy","School Phase":"Secondary","Local Authority Area":"Kent","Area":"East Kent and Medway","Region":"London and South","Preferred Address Line 1":"Academy Lane \nFolkestone","Preferred Town":"","Preferred County":"Kent","Preferred Postcode":"CT19 5FP","Latitude":"51.092542","Longitude":"1.1676576","Visable on Map":"Yes"},{"@odata.etag":"","ItemInternalId":"bbd9a338-a157-4ba3-bb79-68885dd572c9","Full Name":"Hartsdown Academy","School Phase":"Secondary","Local Authority Area":"Kent","Area":"East Kent and Medway","Region":"London and South","Preferred Address Line 1":"George V Avenue","Preferred Town":"MARGATE","Preferred County":"Kent","Preferred Postcode":"CT9 5RE","Latitude":"51.3798665","Longitude":"1.3680008","Visable on Map":"Yes"},{"@odata.etag":"","ItemInternalId":"7db8ec71-1d8f-4437-849b-a956a163ca50","Full Name":"Highsted Grammer","School Phase":"Secondary","Local Authority Area":"Kent","Area":"East Kent and Medway","Region":"London and South","Preferred Address Line 1":"Sittingbourne ","Preferred Town":"","Preferred County":"Kent","Preferred Postcode":"ME10 4PT","Latitude":"51.3335463","Longitude":"0.7374417","Visable on Map":"Yes"},{"@odata.etag":"","ItemInternalId":"43cc6606-c9ef-4c90-a2f9-8bf2f0d85dff","Full Name":"Highworth Grammer","School Phase":"Secondary","Local Authority Area":"Kent","Area":"East Kent and Medway","Region":"London and South","Preferred Address Line 1":"Maidstone Road","Preferred Town":"Ashford","Preferred County":"Kent","Preferred Postcode":"TN24 8UD","Latitude":"51.1542211","Longitude":"0.8640083","Visable on Map":"Yes"},{"@odata.etag":"","ItemInternalId":"6a0343bb-32dc-4b60-ae4e-c962cfe32efd","Full Name":"The Canterbury Academy","School Phase":"Secondary","Local Authority Area":"Kent","Area":"East Kent and Medway","Region":"London and South","Preferred Address Line 1":"Knight Avenue","Preferred Town":"CANTERBURY","Preferred County":"Kent","Preferred Postcode":"CT2 8QA","Latitude":"51.2786286","Longitude":"1.062937","Visable on Map":"Yes"},{"@odata.etag":"","ItemInternalId":"f6a84196-d4f7-4ba0-94ec-508abe611f1e","Full Name":"The Canterbury Primary School","School Phase":"Primary","Local Authority Area":"Kent","Area":"East Kent and Medway","Region":"London and South","Preferred Address Line 1":"City View\nFranklyn Road","Preferred Town":"CANTERBURY","Preferred County":"Kent","Preferred Postcode":"CT2 8PT","Latitude":"51.2773836","Longitude":"1.0592976","Visable on Map":"Yes"},{"@odata.etag":"","ItemInternalId":"cf793f78-8a69-4d8c-8e9e-0d7bbbdee3e5","Full Name":"Turner Free School","School Phase":"Secondary","Local Authority Area":"Folkestone","Area":"East Kent and Medway","Region":"London and South","Preferred Address Line 1":"Tile Kiln Ln","Preferred Town":"Kent","Preferred County":"Folkestone","Preferred Postcode":"CT19 4PB","Latitude":"51.0916221","Longitude":"1.1477835","Visable on Map":"Yes"},{"@odata.etag":"","ItemInternalId":"44a84786-2e92-4186-a8fb-4f43ff3d57ec","Full Name":"Dover Christ Church Academy","School Phase":"Secondary","Local Authority Area":"Dover","Area":"East Kent and Medway","Region":"London and South","Preferred Address Line 1":"Melbourne Avenue","Preferred Town":"Dover","Preferred County":"Kent","Preferred Postcode":"CT16 2EG","Latitude":"51.1503928","Longitude":"1.3001226","Visable on Map":"Yes"},{"@odata.etag":"","ItemInternalId":"df259630-1e96-461c-99de-841ea1329b07","Full Name":"Larkfields Junior School","School Phase":"Primary","Local Authority Area":"Nottinghamshire","Area":"East Midlands","Region":"Midlands and Wales","Preferred Address Line 1":"Coronation Road \nNuthall \nNottingham","Preferred Town":"NOTTINGHAMSHIRE","Preferred County":"","Preferred Postcode":"NG16 1EP","Latitude":"52.9952237","Longitude":"-1.2410108","Visable on Map":"Yes"},{"@odata.etag":"","ItemInternalId":"483272c9-012c-4b0e-be64-60013a861b64","Full Name":"Mellers Primary School","School Phase":"Primary","Local Authority Area":"Nottingham","Area":"East Midlands","Region":"Midlands and Wales","Preferred Address Line 1":"Norton Street \nRadford","Preferred Town":"NOTTINGHAM","Preferred County":"","Preferred Postcode":"NG7 3HJ","Latitude":"52.9597685","Longitude":"-1.1734643","Visable on Map":"Yes"},{"@odata.etag":"","ItemInternalId":"245fd827-d6ba-4304-bb8b-027436508d70","Full Name":"Nicholas Chamberlaine School","School Phase":"Secondary","Local Authority Area":"Warwickshire","Area":"East Midlands","Region":"Midlands and Wales","Preferred Address Line 1":"Bulkington Road","Preferred Town":"BEDWORTH","Preferred County":"Warwickshire","Preferred Postcode":"CV12 9EA","Latitude":"52.4800071","Longitude":"-1.4598446","Visable on Map":"Yes"},{"@odata.etag":"","ItemInternalId":"8de13e24-5728-4250-b859-5f4f5e43935d","Full Name":"Pear Tree Community Junior School","School Phase":"Primary","Local Authority Area":"Derby","Area":"East Midlands","Region":"Midlands and Wales","Preferred Address Line 1":"Pear Tree Street","Preferred Town":"DERBY","Preferred County":"Derbyshire","Preferred Postcode":"DE23 8PN","Latitude":"52.9029037","Longitude":"-1.474168","Visable on Map":"Yes"},{"@odata.etag":"","ItemInternalId":"4abf0fba-d4ea-4c4e-b28f-ea754e4534a6","Full Name":"Rosslyn Park Primary and Nursery School","School Phase":"Primary","Local Authority Area":"Nottingham","Area":"East Midlands","Region":"Midlands and Wales","Preferred Address Line 1":"Amesbury Circus\nOff Bells Lane\nAspley","Preferred Town":"NOTTINGHAM","Preferred County":"","Preferred Postcode":"NG8 6DD","Latitude":"52.9845362","Longitude":"-1.2067151","Visable on Map":"Yes"},{"@odata.etag":"","ItemInternalId":"2ef85685-9e33-4965-8417-d87adb7a219b","Full Name":"Ark Isaac Newton","School Phase":"All Through","Local Authority Area":"Essex","Area":"Essex and Home Counties","Region":"London and South","Preferred Address Line 1":"1 Cricklefield Pl","Preferred Town":"Ilford","Preferred County":"","Preferred Postcode":"IG1 1FY","Latitude":"51.5618031","Longitude":"0.0915731","Visable on Map":"Yes"},{"@odata.etag":"","ItemInternalId":"0699366b-e0a5-48aa-aa8a-a4588183eda1","Full Name":"Stewards Academy - Science Specialist, Harlow","School Phase":"Secondary","Local Authority Area":"Essex","Area":"Essex and Home Counties","Region":"London and South","Preferred Address Line 1":"Parnall Road","Preferred Town":"HARLOW","Preferred County":"","Preferred Postcode":"CM18 7NQ","Latitude":"51.750736","Longitude":"0.0926701","Visable on Map":"Yes"},{"@odata.etag":"","ItemInternalId":"36826274-7077-442f-ae7d-319b969c0f83","Full Name":"Oasis Academy Oldham","School Phase":"Secondary","Local Authority Area":"Oldham","Area":"GM1 Trafford","Region":"The North of England","Preferred Address Line 1":"Hollins Road","Preferred Town":"OLDHAM","Preferred County":"Greater Manchester","Preferred Postcode":"OL8 4JZ","Latitude":"53.5214807","Longitude":"-2.1327199","Visable on Map":"Yes"},{"@odata.etag":"","ItemInternalId":"b0347c32-58b6-4de5-9ac1-8b187de768de","Full Name":"Moss Valley Primary Academy","School Phase":"Primary","Local Authority Area":"Salford","Area":"GM2 Salford","Region":"The North of England","Preferred Address Line 1":"Cutnook Lane\nIrlam","Preferred Town":"SALFORD","Preferred County":"Greater Manchester","Preferred Postcode":"M44 6GX","Latitude":"53.4538251","Longitude":"-2.417361","Visable on Map":"Yes"},{"@odata.etag":"","ItemInternalId":"83a79bca-56a9-4285-9c79-486e26c2e0e9","Full Name":"Broadfield Primary School","School Phase":"Primary","Local Authority Area":"Oldham","Area":"GM3 Oldham and Rochdale","Region":"The North of England","Preferred Address Line 1":"Goddard Street","Preferred Town":"OLDHAM","Preferred County":"Greater Manchester","Preferred Postcode":"OL8 1LH","Latitude":"53.5325859","Longitude":"-2.1106375","Visable on Map":"Yes"},{"@odata.etag":"","ItemInternalId":"c4956c64-3f24-4b73-a55a-f23ba8b88131","Full Name":"Higher Failsworth Primary School","School Phase":"Primary","Local Authority Area":"Oldham","Area":"GM3 Oldham and Rochdale","Region":"The North of England","Preferred Address Line 1":"Stansfield Road","Preferred Town":"FAILSWORTH","Preferred County":"Greater Manchester","Preferred Postcode":"M35 9EA","Latitude":"53.5133644","Longitude":"-2.1478196","Visable on Map":"Yes"},{"@odata.etag":"","ItemInternalId":"19a52e09-24aa-4394-864d-a190f121370e","Full Name":"Bolton St Catherine's Academy","School Phase":"All Through","Local Authority Area":"Bolton","Area":"GM4 City","Region":"The North of England","Preferred Address Line 1":"Stitch-Mi-Lane","Preferred Town":"MANCHESTER","Preferred County":"Greater Manchester","Preferred Postcode":"BL2 4HU","Latitude":"53.5925","Longitude":"-2.389","Visable on Map":"Yes"},{"@odata.etag":"","ItemInternalId":"93633f4a-6726-41ae-9e5a-24660ed42ede","Full Name":"Philips High School","School Phase":"Secondary","Local Authority Area":"Bury","Area":"GM3 Oldham and Rochdale","Region":"The North of England","Preferred Address Line 1":"Higher Lane\nWhitefield","Preferred Town":"MANCHESTER","Preferred County":"","Preferred Postcode":"M45 7PH","Latitude":"53.5463015","Longitude":"-2.2994843","Visable on Map":"Yes"},{"@odata.etag":"","ItemInternalId":"3d8292ae-13ba-4912-a883-5346ead4a149","Full Name":"Haveley Hey Community School Jen","School Phase":"Primary","Local Authority Area":"Manchester","Area":"GM4 City","Region":"The North of England","Preferred Address Line 1":"Nearbrook Road \nWythenshawe\nManchester","Preferred Town":"GREATER MANCHESTER","Preferred County":"","Preferred Postcode":"M22 9NS","Latitude":"53.3852575","Longitude":"-2.264028","Visable on Map":"Yes"},{"@odata.etag":"","ItemInternalId":"39784075-a299-4ce4-a655-a7812e357964","Full Name":"St Margaret's CofE Primary School","School Phase":"Primary","Local Authority Area":"Manchester","Area":"GM4 City","Region":"The North of England","Preferred Address Line 1":"Withington Road\nWhalley Range","Preferred Town":"MANCHESTER","Preferred County":"","Preferred Postcode":"M16 8FQ","Latitude":"53.4494835","Longitude":"-2.2586897","Visable on Map":"Yes"},{"@odata.etag":"","ItemInternalId":"be3fcd22-fd27-4998-8c94-e7dbd3bf7c82","Full Name":"The Willows Primary School","School Phase":"Primary","Local Authority Area":"Manchester","Area":"GM4 City","Region":"The North of England","Preferred Address Line 1":"Tayfield Road \nWoodhouse Park \nWythenshawe","Preferred Town":"MANCHESTER","Preferred County":"","Preferred Postcode":"M22 1BQ","Latitude":"53.3750067","Longitude":"-2.2657382","Visable on Map":"Yes"},{"@odata.etag":"","ItemInternalId":"416339d8-1e26-4e11-bbba-3ebefd39d035","Full Name":"Churchfield Primary School","School Phase":"Primary","Local Authority Area":"Enfield","Area":"London and Herts","Region":"London and West","Preferred Address Line 1":"Latymer Road","Preferred Town":"LONDON","Preferred County":"","Preferred Postcode":"N9 9PL","Latitude":"51.6302227","Longitude":"-0.0665074","Visable on Map":"Yes"},{"@odata.etag":"","ItemInternalId":"fb541b39-db75-400a-be41-481e908eb976","Full Name":"Lavender Primary School","School Phase":"Primary","Local Authority Area":"Enfield","Area":"London and Herts","Region":"London and West","Preferred Address Line 1":"Lavender Road\nEnfield","Preferred Town":"LONDON","Preferred County":"Middlesex","Preferred Postcode":"EN2 0SX","Latitude":"51.6651515","Longitude":"-0.0781506","Visable on Map":"Yes"},{"@odata.etag":"","ItemInternalId":"dcd00275-c898-46cf-bf51-6186cda78447","Full Name":"Laureate Academy","School Phase":"Secondary","Local Authority Area":"Hemel Hempstead","Area":"London and Herts","Region":"London and West","Preferred Address Line 1":"Warners End Road","Preferred Town":"Hemel Hempstead","Preferred County":"Hertfordshire","Preferred Postcode":"HP1 3DW","Latitude":"51.757582","Longitude":"-0.4831367","Visable on Map":"Yes"},{"@odata.etag":"","ItemInternalId":"3e13e710-d8ec-452c-8b94-8b8c1e4b6f9a","Full Name":"Barclay Academy","School Phase":"Secondary","Local Authority Area":"Stevenage","Area":"London and Herts","Region":"London and West","Preferred Address Line 1":"Walkern Road","Preferred Town":"Stevenage","Preferred County":"Hertfordshire","Preferred Postcode":"SG1 3RB","Latitude":"51.9145746","Longitude":"-0.2026121","Visable on Map":"Yes"},{"@odata.etag":"","ItemInternalId":"347ebc16-f878-40b0-b411-8cf8cbf110ba","Full Name":"Duke's Aldridge Academy","School Phase":"Secondary","Local Authority Area":"Haringey","Area":"London and Herts","Region":"London and West","Preferred Address Line 1":"Trulock Road","Preferred Town":"London","Preferred County":"","Preferred Postcode":"N17 0PG","Latitude":"51.6046","Longitude":"-0.0636","Visable on Map":"Yes"},{"@odata.etag":"","ItemInternalId":"5b5ca4d8-4c9c-4012-a7b4-dd642f8b4474","Full Name":"Ark King Solomon Academy","School Phase":"All Through","Local Authority Area":"Westminster","Area":"London Central","Region":"London and West","Preferred Address Line 1":"Penfold Street","Preferred Town":"LONDON","Preferred County":"Middlesex","Preferred Postcode":"NW1 6RX","Latitude":"51.5215701","Longitude":"-0.169306","Visable on Map":"Yes"},{"@odata.etag":"","ItemInternalId":"6ae41073-fc27-4400-9ebb-117600347991","Full Name":"Ashmount Primary School","School Phase":"Primary","Local Authority Area":"Islington","Area":"London Central","Region":"London and West","Preferred Address Line 1":"Crouch Hill Park\n83 Crouch Hill","Preferred Town":"LONDON","Preferred County":"","Preferred Postcode":"N8 9EG","Latitude":"51.5745036","Longitude":"-0.1217644","Visable on Map":"Yes"},{"@odata.etag":"","ItemInternalId":"c9bb457a-d513-4783-824e-3aec7f01c243","Full Name":"Hanover Primary School","School Phase":"Primary","Local Authority Area":"Islington","Area":"London Central","Region":"London and West","Preferred Address Line 1":"Noel Road \nIslington","Preferred Town":"LONDON","Preferred County":"","Preferred Postcode":"N1 8BD","Latitude":"51.5329794","Longitude":"-0.0990638","Visable on Map":"Yes"},{"@odata.etag":"","ItemInternalId":"1864444d-e065-47a1-8c09-51755fc52036","Full Name":"Knightsbridge School","School Phase":"Preparatory","Local Authority Area":"Kensington and Chelsea","Area":"London Central","Region":"London and West","Preferred Address Line 1":"67 Pont Street ","Preferred Town":" LONDON","Preferred County":"","Preferred Postcode":"SW1X 0BD","Latitude":"51.4965951","Longitude":"-0.1622247","Visable on Map":"Yes"},{"@odata.etag":"","ItemInternalId":"d1d17ef9-491c-43af-86ef-bb179fa48801","Full Name":"Pimlico Academy","School Phase":"Secondary","Local Authority Area":"Westminster","Area":"London Central","Region":"London and West","Preferred Address Line 1":"Lupus Street","Preferred Town":"LONDON","Preferred County":"","Preferred Postcode":"SW1V 3AT","Latitude":"51.4881789","Longitude":"-0.1371975","Visable on Map":"Yes"},{"@odata.etag":"","ItemInternalId":"2ac90bf7-272f-4b83-91ac-2f1f76ccb001","Full Name":"Sacred Heart Catholic Primary School","School Phase":"Primary","Local Authority Area":"Islington","Area":"London Central","Region":"London and West","Preferred Address Line 1":"68 Georges Road\nHolloway","Preferred Town":"LONDON","Preferred County":"","Preferred Postcode":"N7 8JN","Latitude":"51.5502196","Longitude":"-0.1136489","Visable on Map":"Yes"},{"@odata.etag":"","ItemInternalId":"928cadc2-5612-473a-88d1-ad71f743f83f","Full Name":"Portway Primary School","School Phase":"Primary","Local Authority Area":"Newham","Area":"London East","Region":"London and South","Preferred Address Line 1":"Stratford Road \nPlaistow","Preferred Town":"LONDON","Preferred County":"","Preferred Postcode":"E13 0JW","Latitude":"51.5336136","Longitude":"0.0190514","Visable on Map":"Yes"},{"@odata.etag":"","ItemInternalId":"7e10b063-51a9-43c4-87e4-9df0ab6f0eb5","Full Name":"Stratford School Academy","School Phase":"Secondary","Local Authority Area":"Stratford","Area":"London East","Region":"London and South","Preferred Address Line 1":"Grosvenor Road","Preferred Town":"London","Preferred County":"","Preferred Postcode":"E7 8JA","Latitude":"51.5427553","Longitude":"0.0291763","Visable on Map":"Yes"},{"@odata.etag":"","ItemInternalId":"966df9c9-c76b-49dd-b7dd-8dbbfd397737","Full Name":"Brampton Manor Academy","School Phase":"Secondary","Local Authority Area":"Newham","Area":"London East","Region":"London and South","Preferred Address Line 1":"Roman Road ","Preferred Town":"London","Preferred County":"","Preferred Postcode":"E6 3SQ","Latitude":"51.5209686","Longitude":"0.0461108","Visable on Map":"Yes"},{"@odata.etag":"","ItemInternalId":"6b9ba895-77e2-4883-a7d9-48353a1a5ce1","Full Name":"Bow School","School Phase":"Secondary","Local Authority Area":"Tower Hamlets","Area":"London East End","Region":"London and South","Preferred Address Line 1":"Bow School,  \n44 Twelvetrees Crescent,","Preferred Town":"LONDON","Preferred County":"","Preferred Postcode":"E3 3QW","Latitude":"51.5233913","Longitude":"-0.0094966","Visable on Map":"Yes"},{"@odata.etag":"","ItemInternalId":"dd3c8757-5f13-4e26-ab19-3e3a3a40994b","Full Name":"George Green's School","School Phase":"Secondary","Local Authority Area":"Tower Hamlets","Area":"London East End","Region":"London and South","Preferred Address Line 1":"100 Manchester Road  \nIsle Of Dogs","Preferred Town":"LONDON","Preferred County":"","Preferred Postcode":"E14 3DW","Latitude":"51.4881264","Longitude":"-0.0076335","Visable on Map":"Yes"},{"@odata.etag":"","ItemInternalId":"da2e40d0-3c7f-44a7-b359-ee68afc42518","Full Name":"St John's Church of England Primary School","School Phase":"Primary","Local Authority Area":"Tower Hamlets","Area":"London East End","Region":"London and South","Preferred Address Line 1":"Peel Grove \nBethnal Green","Preferred Town":"LONDON","Preferred County":"","Preferred Postcode":"E2 9LR","Latitude":"51.5300255","Longitude":"-0.0543774","Visable on Map":"Yes"},{"@odata.etag":"","ItemInternalId":"30a4d41a-9d67-4822-8bc8-4640f250648b","Full Name":"St Paul's Whitechapel Church of England Primary School","School Phase":"Primary","Local Authority Area":"Tower Hamlets","Area":"London East End","Region":"London and South","Preferred Address Line 1":"Wellclose Square","Preferred Town":"LONDON","Preferred County":"","Preferred Postcode":"E1 8HY","Latitude":"51.5100898","Longitude":"-0.065848","Visable on Map":"Yes"},{"@odata.etag":"","ItemInternalId":"c704bf5f-4f8a-4cf3-9d10-73772a2912c3","Full Name":"The Bridge Academy","School Phase":"Secondary","Local Authority Area":"Hackney","Area":"London East End","Region":"London and South","Preferred Address Line 1":"Hackney \nLaburnum Street","Preferred Town":"LONDON","Preferred County":"","Preferred Postcode":"E2 8BA","Latitude":"51.53566","Longitude":"-0.0726659","Visable on Map":"Yes"},{"@odata.etag":"","ItemInternalId":"80ca6098-f96f-4678-b231-6af772162ade","Full Name":"William Patten Primary School","School Phase":"Primary","Local Authority Area":"Hackney","Area":"London East End","Region":"London and South","Preferred Address Line 1":"Stoke Newington Church Street","Preferred Town":"LONDON","Preferred County":"","Preferred Postcode":"N16 0NX","Latitude":"51.5618029","Longitude":"-0.0749512","Visable on Map":"Yes"},{"@odata.etag":"","ItemInternalId":"c091874c-6a76-47c6-b16a-dd0f717eac37","Full Name":"Ark John Keats Academy","School Phase":"All Through","Local Authority Area":"Enfield","Area":"London North","Region":"London and West","Preferred Address Line 1":"Bell Lane   \nEnfield  \nLondon","Preferred Town":"","Preferred County":"","Preferred Postcode":"EN3 5PA","Latitude":"51.6659319","Longitude":"-0.0367168","Visable on Map":"Yes"},{"@odata.etag":"","ItemInternalId":"81430f25-9a5e-4793-b078-f7f47ab310c9","Full Name":"Christ The King Catholic Primary School","School Phase":"Primary","Local Authority Area":"Islington","Area":"London North","Region":"London and West","Preferred Address Line 1":"55 Tollington Park","Preferred Town":"LONDON","Preferred County":"","Preferred Postcode":"N4 3QW","Latitude":"51.5668786","Longitude":"-0.1139551","Visable on Map":"Yes"},{"@odata.etag":"","ItemInternalId":"1e55b85b-8c05-424c-aeb4-c93a9a30ef9d","Full Name":"Fortismere School","School Phase":"Secondary","Local Authority Area":"Haringey","Area":"London North","Region":"London and West","Preferred Address Line 1":"Southwing \nTetherdown \nMuswell Hill","Preferred Town":"LONDON","Preferred County":"","Preferred Postcode":"N10 1NE","Latitude":"51.5927806","Longitude":"-0.1509244","Visable on Map":"Yes"},{"@odata.etag":"","ItemInternalId":"b9182276-d6e4-40fe-8609-3a35ea65ab63","Full Name":"Heartlands High School","School Phase":"Secondary","Local Authority Area":"Haringey","Area":"London North","Region":"London and West","Preferred Address Line 1":"Station Road\nWood Green","Preferred Town":"LONDON","Preferred County":"","Preferred Postcode":"N22 7ST","Latitude":"51.5976375","Longitude":"-0.119294","Visable on Map":"Yes"},{"@odata.etag":"","ItemInternalId":"45cac16f-4e73-40c9-a0a4-96706e7d9f81","Full Name":"Highfield Primary School","School Phase":"Primary","Local Authority Area":"Enfield","Area":"London North","Region":"London and West","Preferred Address Line 1":"Highfield Road","Preferred Town":"LONDON","Preferred County":"","Preferred Postcode":"N21 3HE","Latitude":"51.6294373","Longitude":"-0.0943695","Visable on Map":"Yes"},{"@odata.etag":"","ItemInternalId":"7063fc4f-e55d-470b-9768-f4b084f09374","Full Name":"London Academy","School Phase":"All Through","Local Authority Area":"Barnet","Area":"London North","Region":"London and West","Preferred Address Line 1":"Spur Road","Preferred Town":"EDGWARE","Preferred County":"Middlesex","Preferred Postcode":"HA8 8DE","Latitude":"51.6224859","Longitude":"-0.2893569","Visable on Map":"Yes"},{"@odata.etag":"","ItemInternalId":"5c29ffc7-b7b5-4af7-aac7-14cc19d686b7","Full Name":"Prince of Wales Primary School","School Phase":"Primary","Local Authority Area":"Enfield","Area":"London North","Region":"London and West","Preferred Address Line 1":"Salisbury Road \nEnfield","Preferred Town":"LONDON","Preferred County":"","Preferred Postcode":"EN3 6HG","Latitude":"51.6697848","Longitude":"-0.0224933","Visable on Map":"Yes"},{"@odata.etag":"","ItemInternalId":"685d84e1-6177-426f-b3bc-307b3337b8c0","Full Name":"The Totteridge Academy","School Phase":"Secondary","Local Authority Area":"Barnet","Area":"London North","Region":"London and West","Preferred Address Line 1":"Barnet Lane","Preferred Town":"","Preferred County":"","Preferred Postcode":"N20 8AZ","Latitude":"51.6388434","Longitude":"-0.2003696","Visable on Map":"Yes"},{"@odata.etag":"","ItemInternalId":"f242deee-33b6-461d-84d2-4e040e5b4f19","Full Name":"Deansbrook Primary","School Phase":"Primary","Local Authority Area":"Barnet","Area":"London North ","Region":"London and West","Preferred Address Line 1":"Hale Drive","Preferred Town":"London","Preferred County":"","Preferred Postcode":"NW7 3ED","Latitude":"51.6126431","Longitude":"-0.2620537","Visable on Map":"Yes"},{"@odata.etag":"","ItemInternalId":"b67b4c8a-e5d5-454f-a654-5b515770a0a6","Full Name":"Forest School","School Phase":"All through","Local Authority Area":"Waltham Forest","Area":"London North East and Expansion","Region":"London and South","Preferred Address Line 1":"College Place","Preferred Town":"SNARESBROOK","Preferred County":"","Preferred Postcode":"E17 3PY","Latitude":"51.585587","Longitude":"0.0093303","Visable on Map":"Yes"},{"@odata.etag":"","ItemInternalId":"3de62b2f-e351-4032-a97b-7ec93b5e2052","Full Name":"Lammas School and Sixth Form","School Phase":"Secondary","Local Authority Area":"Waltham Forest","Area":"London North East and Expansion","Region":"London and South","Preferred Address Line 1":"150 Seymour Road\nLeyton","Preferred Town":"LONDON","Preferred County":"","Preferred Postcode":"E10 7LX","Latitude":"51.5659832","Longitude":"-0.0256298","Visable on Map":"Yes"},{"@odata.etag":"","ItemInternalId":"29904537-9e05-46f2-9e80-3b9961b1676a","Full Name":"London Fields","School Phase":"Primary","Local Authority Area":"Hackney","Area":"London North East and Expansion","Region":"London and South","Preferred Address Line 1":"Westgate Street","Preferred Town":"LONDON","Preferred County":"","Preferred Postcode":"E8 3RL","Latitude":"51.5375098","Longitude":"-0.0594095","Visable on Map":"Yes"},{"@odata.etag":"","ItemInternalId":"2e4c5d9b-f28e-46de-a1db-7334ac461179","Full Name":"Riverley","School Phase":"Primary","Local Authority Area":"Walthamstow","Area":"London North East and Expansion","Region":"London and South","Preferred Address Line 1":"40 Park Road","Preferred Town":"London","Preferred County":"","Preferred Postcode":"E10 7BZ","Latitude":"51.5666398","Longitude":"-0.0192381","Visable on Map":"Yes"},{"@odata.etag":"","ItemInternalId":"8e086053-169f-4d17-9c65-147dff6b4640","Full Name":"Willow Brook Primary","School Phase":"Primary","Local Authority Area":"Walthamstow","Area":"London North East and Expansion","Region":"London and South","Preferred Address Line 1":"190 Church Road","Preferred Town":"London","Preferred County":"","Preferred Postcode":"E10 7BH","Latitude":"51.5650498","Longitude":"-0.0204038","Visable on Map":"Yes"},{"@odata.etag":"","ItemInternalId":"c2219d76-5f68-4c2e-9a32-dfa9c1fead1a","Full Name":"Ark Burlington Danes Academy","School Phase":"Secondary","Local Authority Area":"Hammersmith and Fulham","Area":"London North Thames","Region":"London and West","Preferred Address Line 1":"Wood Lane","Preferred Town":"LONDON","Preferred County":"London","Preferred Postcode":"W12 0HR","Latitude":"51.518921","Longitude":"-0.2298922","Visable on Map":"Yes"},{"@odata.etag":"","ItemInternalId":"755d2950-d9ec-4718-ad0c-625a1778b921","Full Name":"Avondale Park Primary School","School Phase":"Primary","Local Authority Area":"Kensington and Chelsea","Area":"London North Thames","Region":"London and West","Preferred Address Line 1":"Sirdar Road","Preferred Town":"LONDON","Preferred County":"","Preferred Postcode":"W11 4EE","Latitude":"51.5108906","Longitude":"-0.2144521","Visable on Map":"Yes"},{"@odata.etag":"","ItemInternalId":"8aaa06d2-9e7c-416f-b055-2dc7968869e6","Full Name":"Fox Primary School","School Phase":"Primary","Local Authority Area":"Kensington and Chelsea","Area":"London North Thames","Region":"London and West","Preferred Address Line 1":"Kensington Place","Preferred Town":"LONDON","Preferred County":"","Preferred Postcode":"W8 7PP","Latitude":"51.5074897","Longitude":"-0.1967021","Visable on Map":"Yes"},{"@odata.etag":"","ItemInternalId":"943753e7-cef6-4ed8-b86c-2dcf1c97bcc7","Full Name":"Kensington Aldridge Academy","School Phase":"Secondary","Local Authority Area":"Kensington and Chelsea","Area":"London North Thames","Region":"London and West","Preferred Address Line 1":"1 Silchester Road","Preferred Town":"LONDON","Preferred County":"","Preferred Postcode":"W10 6EX","Latitude":"51.5144109","Longitude":"-0.2153233","Visable on Map":"Yes"},{"@odata.etag":"","ItemInternalId":"3fb3e95c-c695-4836-85f7-8f8bf9473a7a","Full Name":"Lady Margaret School","School Phase":"Secondary","Local Authority Area":"Hammersmith and Fulham","Area":"London North Thames","Region":"London and West","Preferred Address Line 1":"Parson's Green","Preferred Town":"LONDON","Preferred County":"","Preferred Postcode":"SW6 4UN","Latitude":"51.4741818","Longitude":"-0.1996431","Visable on Map":"Yes"},{"@odata.etag":"","ItemInternalId":"3b799326-db26-424c-886d-bc9e9041a2c1","Full Name":"Reach Academy Feltham","School Phase":"All Through","Local Authority Area":"Hounslow","Area":"London North Thames","Region":"London and West","Preferred Address Line 1":"53-55 High Street \nFeltham","Preferred Town":"LONDON","Preferred County":"","Preferred Postcode":"TW13 4AB","Latitude":"51.4435533","Longitude":"-0.4111546","Visable on Map":"Yes"},{"@odata.etag":"","ItemInternalId":"9fedbcb4-e0e4-430c-9b4d-9997e1331598","Full Name":"Ark Acton","School Phase":"Secondary","Local Authority Area":"Acton","Area":"London North Thames","Region":"London and West","Preferred Address Line 1":"Gunnersbury Lane ","Preferred Town":"London","Preferred County":"","Preferred Postcode":"W3 8EY","Latitude":"51.505614","Longitude":"-0.2801781","Visable on Map":"Yes"},{"@odata.etag":"","ItemInternalId":"72100674-3610-45b9-a5b3-7f888f3fc0de","Full Name":"The Kingston Academy","School Phase":"Secondary","Local Authority Area":"Kingston upon Thames","Area":"London North Thames ","Region":"London and West","Preferred Address Line 1":"Richmond Road","Preferred Town":"KINGSTON UPON THAMES","Preferred County":"Surrey","Preferred Postcode":"KT2 5PE","Latitude":"51.423334","Longitude":"-0.3018089","Visable on Map":"Yes"},{"@odata.etag":"","ItemInternalId":"8dcd1d46-3b6a-4793-9ab0-8ff1e9061dc8","Full Name":"Ark Elvin Academy","School Phase":"Secondary","Local Authority Area":"Brent","Area":"London North West","Region":"London and West","Preferred Address Line 1":"Cecil Avenue \nWembley \nMiddlesex","Preferred Town":"LONDON","Preferred County":"","Preferred Postcode":"HA9 7DU","Latitude":"51.5522445","Longitude":"-0.2909979","Visable on Map":"Yes"},{"@odata.etag":"","ItemInternalId":"85a465fb-cfb3-4a8d-a6e2-c59c38346ea7","Full Name":"Brentfield Primary School","School Phase":"Primary","Local Authority Area":"Brent","Area":"London North West","Region":"London and West","Preferred Address Line 1":"41 – 43 Meadow Garth, \nNeasden","Preferred Town":"LONDON","Preferred County":"","Preferred Postcode":"NW10 0SL","Latitude":"51.547025","Longitude":"-0.2637764","Visable on Map":"Yes"},{"@odata.etag":"","ItemInternalId":"55cd54b0-c57f-4bc4-8ada-d4e040fd55d4","Full Name":"East Lane Primary School","School Phase":"Primary","Local Authority Area":"Brent","Area":"London North West","Region":"London and West","Preferred Address Line 1":"East Lane","Preferred Town":"WEMBLEY","Preferred County":"Middlesex","Preferred Postcode":"HA0 3NT","Latitude":"51.5631729","Longitude":"-0.3104405","Visable on Map":"Yes"},{"@odata.etag":"","ItemInternalId":"8cf8b9b5-c191-49d1-8974-015e44e22555","Full Name":"Furness Primary School","School Phase":"Primary","Local Authority Area":"Brent","Area":"London North West","Region":"London and West","Preferred Address Line 1":"Furness Road\nHarlesden","Preferred Town":"LONDON","Preferred County":"","Preferred Postcode":"NW10 5YT","Latitude":"51.5338354","Longitude":"-0.2385848","Visable on Map":"Yes"},{"@odata.etag":"","ItemInternalId":"4c401981-a86c-4ba9-9e11-ee9ddd38113c","Full Name":"Gladstone Park Primary School","School Phase":"Primary","Local Authority Area":"Brent","Area":"London North West","Region":"London and West","Preferred Address Line 1":"Sherrick Green Road\nWillesden","Preferred Town":"LONDON","Preferred County":"","Preferred Postcode":"NW10 1LB","Latitude":"51.5518153","Longitude":"-0.2310966","Visable on Map":"Yes"},{"@odata.etag":"","ItemInternalId":"bcf9ea92-7719-48b2-b741-6fafa39e38f9","Full Name":"Oakington Manor Primary School","School Phase":"Primary","Local Authority Area":"Brent","Area":"London North West","Region":"London and West","Preferred Address Line 1":"Oakington Manor Drive\nWembley","Preferred Town":"LONDON","Preferred County":"Middlesex","Preferred Postcode":"HA9 6NF","Latitude":"51.5519636","Longitude":"-0.2724303","Visable on Map":"Yes"},{"@odata.etag":"","ItemInternalId":"af1c874d-c9aa-41d0-bf0c-27aa833f6dc2","Full Name":"Park Lane Primary School","School Phase":"Primary","Local Authority Area":"Brent","Area":"London North West","Region":"London and West","Preferred Address Line 1":"Park Lane \nWembley","Preferred Town":"LONDON","Preferred County":"","Preferred Postcode":"HA9 7RY","Latitude":"51.5558829","Longitude":"-0.2938475","Visable on Map":"Yes"},{"@odata.etag":"","ItemInternalId":"c628f1e6-5196-491a-b393-ab464dc37af9","Full Name":"Preston Park Primary School","School Phase":"Primary","Local Authority Area":"Brent","Area":"London North West","Region":"London and West","Preferred Address Line 1":"College Road","Preferred Town":"WEMBLEY","Preferred County":"","Preferred Postcode":"HA9 8RJ","Latitude":"51.5719514","Longitude":"-0.3006199","Visable on Map":"Yes"},{"@odata.etag":"","ItemInternalId":"dae7f70b-02f8-4bde-8ffb-d21c5ed86674","Full Name":"Salusbury Primary School","School Phase":"Primary","Local Authority Area":"Brent","Area":"London North West","Region":"London and West","Preferred Address Line 1":"Salusbury Road \nKilburn","Preferred Town":"LONDON","Preferred County":"","Preferred Postcode":"NW6 6RG","Latitude":"51.537703","Longitude":"-0.2065969","Visable on Map":"Yes"},{"@odata.etag":"","ItemInternalId":"8b46aa01-82a0-4a6c-aacf-3133e2816ed4","Full Name":"Sudbury Primary School","School Phase":"Primary","Local Authority Area":"Brent","Area":"London North West","Region":"London and West","Preferred Address Line 1":"Watford Road","Preferred Town":"WEMBLEY","Preferred County":"","Preferred Postcode":"HA0 3EY","Latitude":"51.5594831","Longitude":"-0.3202573","Visable on Map":"Yes"},{"@odata.etag":"","ItemInternalId":"b47c18f6-ae57-4033-8880-56cae3c17dbc","Full Name":"Wembley High Technology College","School Phase":"Secondary","Local Authority Area":"Brent","Area":"London North West","Region":"London and West","Preferred Address Line 1":"East Lane\nEast Lane","Preferred Town":"WEMBLEY","Preferred County":"Middlesex","Preferred Postcode":"HA0 3NT","Latitude":"51.5631729","Longitude":"-0.3104405","Visable on Map":"Yes"},{"@odata.etag":"","ItemInternalId":"eeb1d80e-83c9-42e5-84b7-09cb3f120a05","Full Name":"Claremont High","School Phase":"Secondary","Local Authority Area":"Brent","Area":"London North West","Region":"London North West","Preferred Address Line 1":"Claremont Avenue, Kenton","Preferred Town":"LONDON","Preferred County":"","Preferred Postcode":"HA3 0UH","Latitude":"51.5851631","Longitude":"-0.2933284","Visable on Map":"Yes"},{"@odata.etag":"","ItemInternalId":"d57bb81b-cb88-4acb-aedf-66bc6d1b684b","Full Name":"Belvedere Infant School","School Phase":"Primary","Local Authority Area":"Bexley","Area":"London South and Bexley","Region":"London and South","Preferred Address Line 1":"Mitchell Close\n\n","Preferred Town":"BELVEDERE","Preferred County":"Kent","Preferred Postcode":"DA17 6AA","Latitude":"51.4910006","Longitude":"0.1596669","Visable on Map":"Yes"},{"@odata.etag":"","ItemInternalId":"003d4401-1d7d-42be-b9d1-82800ecba47b","Full Name":"Castle Hill Academy","School Phase":"Primary","Local Authority Area":"Croydon","Area":"London South and Bexley","Region":"London and South","Preferred Address Line 1":"Dunley Drive\nNew Addington\nCroydon","Preferred Town":"SURREY","Preferred County":"","Preferred Postcode":"CR0 0RJ","Latitude":"51.3546341","Longitude":"-0.0169783","Visable on Map":"Yes"},{"@odata.etag":"","ItemInternalId":"0902466b-3fa9-4671-9032-24a4454fbede","Full Name":"Croydon High School","School Phase":"All Through","Local Authority Area":"Croydon","Area":"London South and Bexley","Region":"London and South","Preferred Address Line 1":"Old Farleigh Road\nSelsdon","Preferred Town":"SOUTH CROYDON","Preferred County":"Surrey","Preferred Postcode":"CR2 8YB","Latitude":"51.3412461","Longitude":"-0.0617075","Visable on Map":"Yes"},{"@odata.etag":"","ItemInternalId":"a8615dce-4f88-4c2f-9788-c9885457eb93","Full Name":"South Norwood Primary","School Phase":"Primary","Local Authority Area":"Croydon","Area":"London South and Bexley","Region":"London and South","Preferred Address Line 1":"34 Crowther Road\nSouth Norwood","Preferred Town":"LONDON","Preferred County":"","Preferred Postcode":"SE25 5QP","Latitude":"51.3954122","Longitude":"-0.0727589","Visable on Map":"Yes"},{"@odata.etag":"","ItemInternalId":"b780e8dc-ea5f-4502-9a98-407e87e581cc","Full Name":"The Crescent Primary School","School Phase":"Primary","Local Authority Area":"Croydon","Area":"London South and Bexley","Region":"London and South","Preferred Address Line 1":"Selhurst","Preferred Town":"CROYDON","Preferred County":"","Preferred Postcode":"CR0 2HN","Latitude":"51.3903954","Longitude":"-0.0926183","Visable on Map":"Yes"},{"@odata.etag":"","ItemInternalId":"0ee276ab-3392-4f53-a243-5a53382552ee","Full Name":"Woodcote Primary School","School Phase":"Primary","Local Authority Area":"Croydon","Area":"London South and Bexley","Region":"London and South","Preferred Address Line 1":"Dunsfold Rise","Preferred Town":"COULSDON","Preferred County":"Surrey","Preferred Postcode":"CR5 2ED","Latitude":"51.3294208","Longitude":"-0.1393466","Visable on Map":"Yes"},{"@odata.etag":"","ItemInternalId":"20eb74e8-80c9-410c-b539-302952cb9b3a","Full Name":"Allfarthing Primary School","School Phase":"Primary","Local Authority Area":"Wandsworth","Area":"London South Central","Region":"London and West","Preferred Address Line 1":"St Ann's Crescent \nWandsworth","Preferred Town":"LONDON","Preferred County":"","Preferred Postcode":"SW18 2LR","Latitude":"51.4542179","Longitude":"-0.1861936","Visable on Map":"Yes"},{"@odata.etag":"","ItemInternalId":"ab2e8e6b-d4fc-4ded-bc6a-15f42bcbc50f","Full Name":"Honeywell Infant School","School Phase":"Primary","Local Authority Area":"Wandsworth","Area":"London South Central","Region":"London and West","Preferred Address Line 1":"Honeywell Road  \nBattersea","Preferred Town":"LONDON","Preferred County":"","Preferred Postcode":"SW11 6EF","Latitude":"51.4547389","Longitude":"-0.1619055","Visable on Map":"Yes"},{"@odata.etag":"","ItemInternalId":"f1975cf9-536e-4c38-a1cd-c334674ccbc9","Full Name":"Honeywell Junior School","School Phase":"Primary","Local Authority Area":"Wandsworth","Area":"London South Central","Region":"London and West","Preferred Address Line 1":"Honeywell Road\nBattersea","Preferred Town":"LONDON","Preferred County":"","Preferred Postcode":"SW11 6EF","Latitude":"51.4547389","Longitude":"-0.1619055","Visable on Map":"Yes"},{"@odata.etag":"","ItemInternalId":"1b9df3e5-987a-4c1d-8f9d-efb81da55758","Full Name":"Smallwood Primary School and Language Unit","School Phase":"Primary","Local Authority Area":"Wandsworth","Area":"London South Central","Region":"London and West","Preferred Address Line 1":"Smallwood Road \nGarratt Lane","Preferred Town":"LONDON","Preferred County":"","Preferred Postcode":"SW17 0TW","Latitude":"51.4312153","Longitude":"-0.1780991","Visable on Map":"Yes"},{"@odata.etag":"","ItemInternalId":"11c3cee1-1aea-4da7-8758-e82298dba273","Full Name":"St Anselm's Catholic Primary School","School Phase":"Primary","Local Authority Area":"Wandsworth","Area":"London South Central","Region":"London and West","Preferred Address Line 1":"19 Tooting Bec Road \nTooting Bec","Preferred Town":"","Preferred County":"London","Preferred Postcode":"SW17 8BS","Latitude":"51.4356878","Longitude":"-0.1575915","Visable on Map":"Yes"},{"@odata.etag":"","ItemInternalId":"64e7bee1-31e0-4241-a755-470ec0303bfb","Full Name":"Furzedown Primary","School Phase":"Primary","Local Authority Area":"Wandsworth","Area":"London South Central","Region":"London and West","Preferred Address Line 1":"Beclands Road","Preferred Town":"London","Preferred County":"","Preferred Postcode":"SW17 9TJ","Latitude":"51.421958","Longitude":"-0.1531383","Visable on Map":"Yes"},{"@odata.etag":"","ItemInternalId":"42098f48-aaee-494f-a4a2-5746efca519b","Full Name":"Albion Primary School","School Phase":"Primary","Local Authority Area":"Southwark","Area":"London South East","Region":"London and South","Preferred Address Line 1":"Albion Street\nRotherhithe","Preferred Town":"LONDON","Preferred County":"","Preferred Postcode":"SE16 7JD","Latitude":"51.5000722","Longitude":"-0.0517344","Visable on Map":"Yes"},{"@odata.etag":"","ItemInternalId":"db8d8b6f-12cf-4556-8556-c13255aec9a4","Full Name":"Ark Globe Academy","School Phase":"All Through","Local Authority Area":"Southwark","Area":"London South East","Region":"London and South","Preferred Address Line 1":"Harper Road","Preferred Town":"LONDON","Preferred County":"","Preferred Postcode":"SE1 6AG","Latitude":"51.4955975","Longitude":"-0.090218","Visable on Map":"Yes"},{"@odata.etag":"","ItemInternalId":"1fc731da-9d2a-45ea-a4c8-11984a27d007","Full Name":"Ark Walworth Academy","School Phase":"Secondary","Local Authority Area":"Southwark","Area":"London South East","Region":"London and South","Preferred Address Line 1":"Shorncliffe Road","Preferred Town":"LONDON","Preferred County":"","Preferred Postcode":"SE1 5UJ","Latitude":"51.487095","Longitude":"-0.0794823","Visable on Map":"Yes"},{"@odata.etag":"","ItemInternalId":"e36cf3b2-2187-4e53-90d1-ed685a8460a1","Full Name":"Deptford Green School","School Phase":"Secondary","Local Authority Area":"Lewisham","Area":"London South East","Region":"London and South","Preferred Address Line 1":"Edward Street \nNew Cross","Preferred Town":"LONDON","Preferred County":"","Preferred Postcode":"SE14 6AN","Latitude":"51.4782503","Longitude":"-0.0357575","Visable on Map":"Yes"},{"@odata.etag":"","ItemInternalId":"22d3f6c9-11b4-4042-9b72-b668672866f5","Full Name":"Marvels Lane Primary School","School Phase":"Primary","Local Authority Area":"Lewisham","Area":"London South East","Region":"London and South","Preferred Address Line 1":"Riddons Road \nGrove Park","Preferred Town":"LONDON","Preferred County":"","Preferred Postcode":"SE12 9RA","Latitude":"51.4291783","Longitude":"0.0327283","Visable on Map":"Yes"},{"@odata.etag":"","ItemInternalId":"de13d5a3-0d23-4424-a883-e58b90b87c48","Full Name":"Prendergast Vale School","School Phase":"All Through","Local Authority Area":"Lewisham","Area":"London South East","Region":"London and South","Preferred Address Line 1":"Elmira Street, Lewisham","Preferred Town":"LONDON","Preferred County":"","Preferred Postcode":"SE13 7BN","Latitude":"51.4635658","Longitude":"-0.0160314","Visable on Map":"Yes"},{"@odata.etag":"","ItemInternalId":"dd27cee9-6ece-4542-a041-0329778ffa66","Full Name":"Riverside Primary School","School Phase":"Primary","Local Authority Area":"Southwark","Area":"London South East","Region":"London and South","Preferred Address Line 1":"Janeway Street \nRotherhithe","Preferred Town":"LONDON","Preferred County":"","Preferred Postcode":"SE16 4PS","Latitude":"51.4991315","Longitude":"-0.0638914","Visable on Map":"Yes"},{"@odata.etag":"","ItemInternalId":"534648bb-e169-4adb-a0fc-4aa821ade5d3","Full Name":"Surrey Square Primary School","School Phase":"Primary","Local Authority Area":"Southwark","Area":"London South East","Region":"London and South","Preferred Address Line 1":"Surrey Square","Preferred Town":"LONDON","Preferred County":"","Preferred Postcode":"SE17 2JY","Latitude":"51.4887442","Longitude":"-0.0829997","Visable on Map":"Yes"},{"@odata.etag":"","ItemInternalId":"0e3bcd90-803b-42b3-abb5-f3b5d19cbafd","Full Name":"James Wolfe Primary School and Centre for the Deaf","School Phase":"Primary","Local Authority Area":"Greenwich","Area":"London South Thames","Region":"London and South","Preferred Address Line 1":"Randall Place \nGreenwich","Preferred Town":"LONDON","Preferred County":"","Preferred Postcode":"SE10 9LA","Latitude":"51.4796513","Longitude":"-0.0126979","Visable on Map":"Yes"},{"@odata.etag":"","ItemInternalId":"f54885a1-7071-4a3c-84d1-002d1222c53e","Full Name":"Morden Mount Primary School","School Phase":"Primary","Local Authority Area":"Greenwich","Area":"London South Thames","Region":"London and South","Preferred Address Line 1":"Lewisham Road","Preferred Town":"LONDON","Preferred County":"","Preferred Postcode":"SE13 7QP","Latitude":"51.4701572","Longitude":"-0.0144207","Visable on Map":"Yes"},{"@odata.etag":"","ItemInternalId":"19002875-3ac4-4fd7-96fa-147490100fcb","Full Name":"Oasis Academy South Bank","School Phase":"Secondary","Local Authority Area":"Lambeth","Area":"London South Thames","Region":"London and South","Preferred Address Line 1":"75 Westminster Bridge Road","Preferred Town":"LONDON","Preferred County":"","Preferred Postcode":"SE1 7HS","Latitude":"51.4984821","Longitude":"-0.1117518","Visable on Map":"Yes"},{"@odata.etag":"","ItemInternalId":"e508a262-bbff-465a-ab65-3bab3e8b25ea","Full Name":"Saint Gabriel's College","School Phase":"Secondary","Local Authority Area":"Lambeth","Area":"London South Thames","Region":"London and South","Preferred Address Line 1":"Upper School: Brooke Building \nCormont Road \nCamberwell","Preferred Town":"LONDON","Preferred County":"","Preferred Postcode":"SW9 6UL","Latitude":"51.4759758","Longitude":"-0.1024139","Visable on Map":"Yes"},{"@odata.etag":"","ItemInternalId":"ec921a04-dc1b-4782-844a-c6a32080d490","Full Name":"Trinity Academy","School Phase":"Secondary","Local Authority Area":"Brixton","Area":"London South Thames","Region":"London and South","Preferred Address Line 1":"56 Brixton Hill","Preferred Town":"London","Preferred County":"","Preferred Postcode":"SW2 1QS","Latitude":"51.4565315","Longitude":"-0.1195722","Visable on Map":"Yes"},{"@odata.etag":"","ItemInternalId":"7a22b9c9-12f8-4708-900a-c375b8deab0d","Full Name":"Earlsfield Primary School","School Phase":"Primary","Local Authority Area":"Wandsworth","Area":"London South West","Region":"London and West","Preferred Address Line 1":"Tranmere Road\nEarlsfield","Preferred Town":"LONDON","Preferred County":"","Preferred Postcode":"SW18 3QQ","Latitude":"51.441436","Longitude":"-0.1859662","Visable on Map":"Yes"},{"@odata.etag":"","ItemInternalId":"1b8132f0-4da9-4009-958c-a777a081f9eb","Full Name":"Heathmere Primary School","School Phase":"Primary","Local Authority Area":"Wandsworth","Area":"London South West","Region":"London and West","Preferred Address Line 1":"Alton Road","Preferred Town":"LONDON","Preferred County":"","Preferred Postcode":"SW15 4LJ","Latitude":"51.4446729","Longitude":"-0.2414133","Visable on Map":"Yes"},{"@odata.etag":"","ItemInternalId":"5b593374-d6e4-4ed3-a777-a2e029634dfb","Full Name":"Holy Ghost Catholic Primary School","School Phase":"Primary","Local Authority Area":"Wandsworth","Area":"London South West","Region":"London and West","Preferred Address Line 1":"Nightingale Square\nBalham","Preferred Town":"LONDON","Preferred County":"","Preferred Postcode":"SW12 8QJ","Latitude":"51.4478805","Longitude":"-0.1563668","Visable on Map":"Yes"},{"@odata.etag":"","ItemInternalId":"fca3e155-f4db-49fb-987a-0562051bfac5","Full Name":"Penwortham Primary School","School Phase":"Primary","Local Authority Area":"Wandsworth","Area":"London South West","Region":"London and West","Preferred Address Line 1":"Penwortham Road \nStreatham","Preferred Town":"LONDON","Preferred County":"","Preferred Postcode":"SW16 6RJ","Latitude":"51.4223918","Longitude":"-0.1458716","Visable on Map":"Yes"},{"@odata.etag":"","ItemInternalId":"a934094e-f60e-4466-9d97-b8e2c50252a5","Full Name":"Roehampton CofE Primary School","School Phase":"Primary","Local Authority Area":"Wandsworth","Area":"London South West","Region":"London and West","Preferred Address Line 1":"245 Roehampton Lane","Preferred Town":"LONDON","Preferred County":"","Preferred Postcode":"SW15 4AA","Latitude":"51.4482656","Longitude":"-0.2375335","Visable on Map":"Yes"},{"@odata.etag":"","ItemInternalId":"b636f74a-4ff0-425e-b2ec-785f69fcafc8","Full Name":"Sellincourt Primary School","School Phase":"Primary","Local Authority Area":"Wandsworth","Area":"London South West","Region":"London and West","Preferred Address Line 1":"Sellincourt Rd  \nTooting","Preferred Town":"LONDON","Preferred County":"","Preferred Postcode":"SW17 9SA","Latitude":"51.4231735","Longitude":"-0.1675593","Visable on Map":"Yes"},{"@odata.etag":"","ItemInternalId":"c5ec06ec-9083-4c9f-974e-b030847e0a90","Full Name":"The Alton School","School Phase":"Primary","Local Authority Area":"Wandsworth","Area":"London South West","Region":"London and West","Preferred Address Line 1":"Danebury Avenue\nRoehampton","Preferred Town":"LONDON","Preferred County":"","Preferred Postcode":"SW15 4PD","Latitude":"51.4527581","Longitude":"-0.2535092","Visable on Map":"Yes"},{"@odata.etag":"","ItemInternalId":"f6b262e5-d9b0-4f74-9f68-728cd3d67494","Full Name":"Trinity St Mary's CofE Primary School","School Phase":"Primary","Local Authority Area":"Wandsworth","Area":"London South West","Region":"London and West","Preferred Address Line 1":"6 Balham Park Road\nBalham","Preferred Town":"LONDON","Preferred County":"","Preferred Postcode":"SW12 8DR","Latitude":"51.4425675","Longitude":"-0.1553289","Visable on Map":"Yes"},{"@odata.etag":"","ItemInternalId":"9fa92c91-949d-4c8d-b217-8eaa62b07dbd","Full Name":"Coston Primary School","School Phase":"Primary","Local Authority Area":"Ealing","Area":"London West","Region":"London and West","Preferred Address Line 1":"Oldfield Lane South","Preferred Town":"GREENFORD","Preferred County":"Middlesex","Preferred Postcode":"UB6 9JU","Latitude":"51.5343797","Longitude":"-0.3515322","Visable on Map":"Yes"},{"@odata.etag":"","ItemInternalId":"67e63fc1-69b6-47a2-9e5c-bf0b02202575","Full Name":"Gifford Primary School","School Phase":"Primary","Local Authority Area":"Ealing","Area":"London West","Region":"London and West","Preferred Address Line 1":"Greenhill Gardens \nNortholt","Preferred Town":"LONDON","Preferred County":"","Preferred Postcode":"UB5 6BU","Latitude":"51.5359619","Longitude":"-0.3760015","Visable on Map":"Yes"},{"@odata.etag":"","ItemInternalId":"e049a92b-3167-403d-a6c7-34d7a4675a09","Full Name":"Greenwood Primary School","School Phase":"Primary","Local Authority Area":"Ealing","Area":"London West","Region":"London and West","Preferred Address Line 1":"Wood End Way \nNortholt","Preferred Town":"LONDON","Preferred County":"","Preferred Postcode":"UB5 4QG","Latitude":"51.5541637","Longitude":"-0.3503267","Visable on Map":"Yes"},{"@odata.etag":"","ItemInternalId":"9ce3da9b-f3bc-4930-9a54-f2d3b1f4257c","Full Name":"Heathland School","School Phase":"Primary","Local Authority Area":"Harrow","Area":"London West","Region":"London and West","Preferred Address Line 1":"Eastcote Lane \nSouth Harrow","Preferred Town":"LONDON","Preferred County":"Middlesex","Preferred Postcode":"HA2 9AG","Latitude":"51.5636547","Longitude":"-0.3692874","Visable on Map":"Yes"},{"@odata.etag":"","ItemInternalId":"da28b095-a131-424a-9e4b-01aff34d3e6a","Full Name":"North Ealing Primary School","School Phase":"Primary","Local Authority Area":"Ealing","Area":"London West","Region":"London and West","Preferred Address Line 1":"Pitshanger Lane \nEaling","Preferred Town":"LONDON","Preferred County":"","Preferred Postcode":"W5 1RP","Latitude":"51.5259101","Longitude":"-0.3180333","Visable on Map":"Yes"},{"@odata.etag":"","ItemInternalId":"08580e79-974e-4ac0-ab00-ba81824a93dc","Full Name":"Oak Wood School","School Phase":"Secondary","Local Authority Area":"Hillingdon","Area":"London West","Region":"London and West","Preferred Address Line 1":"Sutton Court Road\nHillingdon","Preferred Town":"UXBRIDGE","Preferred County":"Middlesex","Preferred Postcode":"UB10 9HT","Latitude":"51.5402729","Longitude":"-0.4439543","Visable on Map":"Yes"},{"@odata.etag":"","ItemInternalId":"74e1e5b7-e604-424b-8f6f-3223db39ae22","Full Name":"Ravenor Primary School","School Phase":"Primary","Local Authority Area":"Ealing","Area":"London West","Region":"London and West","Preferred Address Line 1":"Greenway Gardens \nGreenford\nEaling","Preferred Town":"LONDON","Preferred County":"","Preferred Postcode":"UB6 9TT","Latitude":"51.5322912","Longitude":"-0.3648575","Visable on Map":"Yes"},{"@odata.etag":"","ItemInternalId":"17d66e42-7a0d-4dbd-bf0b-026e6d33a879","Full Name":"St John's Primary School","School Phase":"Primary","Local Authority Area":"Ealing","Area":"London West","Region":"London and West","Preferred Address Line 1":"Greenman Gardens","Preferred Town":"LONDON","Preferred County":"","Preferred Postcode":"W13 0NY","Latitude":"51.5124578","Longitude":"-0.3249563","Visable on Map":"Yes"},{"@odata.etag":"","ItemInternalId":"acfec9d4-e0f0-43d5-bbf6-d0d429f2542f","Full Name":"Swakeleys School for Girls","School Phase":"Secondary","Local Authority Area":"Hillingdon","Area":"London West","Region":"London and West","Preferred Address Line 1":"Clifton Gardens\nHillingdon","Preferred Town":"UXBRIDGE","Preferred County":"","Preferred Postcode":"UB10 0EJ","Latitude":"51.5373112","Longitude":"-0.4450646","Visable on Map":"Yes"},{"@odata.etag":"","ItemInternalId":"93e73773-03ae-42db-9966-2667819ad304","Full Name":"Willow Tree Primary School","School Phase":"Primary","Local Authority Area":"Ealing","Area":"London West","Region":"London and West","Preferred Address Line 1":"Priors Farm Lane \nNortholt\nEaling","Preferred Town":"LONDON","Preferred County":"","Preferred Postcode":"UB5 5FE","Latitude":"51.5502061","Longitude":"-0.3779896","Visable on Map":"Yes"},{"@odata.etag":"","ItemInternalId":"f24eb1b0-5633-432b-837d-fd56eb2bd0a8","Full Name":"Bidston Avenue Primary School","School Phase":"Primary","Local Authority Area":"Wirral","Area":"Merseyside 1","Region":"The North of England","Preferred Address Line 1":"Tollemache Road\nClaughton","Preferred Town":"BIRKENHEAD","Preferred County":"Merseyside","Preferred Postcode":"CH41 0DQ","Latitude":"53.3954153","Longitude":"-3.061791","Visable on Map":"Yes"},{"@odata.etag":"","ItemInternalId":"bd48f8a1-ff29-4066-8c17-52e08f3b5994","Full Name":"Devonshire Park Primary School","School Phase":"Primary","Local Authority Area":"Wirral","Area":"Merseyside 1","Region":"The North of England","Preferred Address Line 1":"Temple Road","Preferred Town":"PRENTON","Preferred County":"Birkenhead","Preferred Postcode":"CH42 9JX","Latitude":"53.3755156","Longitude":"-3.0339228","Visable on Map":"Yes"},{"@odata.etag":"","ItemInternalId":"a23abf4f-4f2d-41a5-acc9-e49f50a671ce","Full Name":"Park Primary School","School Phase":"Primary","Local Authority Area":"Wirral","Area":"Merseyside 1","Region":"The North of England","Preferred Address Line 1":"Love Lane","Preferred Town":"WALLASEY","Preferred County":"Merseyside","Preferred Postcode":"CH44 5RN","Latitude":"53.414735","Longitude":"-3.0472718","Visable on Map":"Yes"},{"@odata.etag":"","ItemInternalId":"603f6def-6324-44e2-a3dd-e22dfc5eb800","Full Name":"Cotsford Primary School","School Phase":"Primary","Local Authority Area":"Durham","Area":"North East 1","Region":"The North of England","Preferred Address Line 1":"Third Street\nHorden","Preferred Town":"PETERLEE","Preferred County":"Co. Durham","Preferred Postcode":"SR8 4EH","Latitude":"54.7621416","Longitude":"-1.311351","Visable on Map":"Yes"},{"@odata.etag":"","ItemInternalId":"eb8f1dff-ac02-401d-804d-2777a83a8772","Full Name":"Ribbon School","School Phase":"Primary","Local Authority Area":"Durham","Area":"North East 1","Region":"The North of England","Preferred Address Line 1":"Barnes Road \nMurton","Preferred Town":"SEAHAM","Preferred County":"Co. Durham","Preferred Postcode":"SR7 9QR","Latitude":"54.8194104","Longitude":"-1.3879265","Visable on Map":"Yes"},{"@odata.etag":"","ItemInternalId":"4bbdb456-19bb-40ea-8cd5-fd3934d9ff2f","Full Name":"Ropery Walk Primary School","School Phase":"Primary","Local Authority Area":"Durham","Area":"North East 1","Region":"The North of England","Preferred Address Line 1":"Ropery Walk","Preferred Town":"SEAHAM","Preferred County":"Co. Durham","Preferred Postcode":"SR7 7JZ","Latitude":"54.8336363","Longitude":"-1.3316815","Visable on Map":"Yes"},{"@odata.etag":"","ItemInternalId":"85d74c18-211a-4743-819d-aaf3bd22f6ca","Full Name":"Rossmere Academy","School Phase":"Primary","Local Authority Area":"Hartlepool","Area":"North East 1","Region":"The North of England","Preferred Address Line 1":"Catcote Road","Preferred Town":"HARTLEPOOL","Preferred County":"West Midlands","Preferred Postcode":"TS25 3JL","Latitude":"54.6607802","Longitude":"-1.2350436","Visable on Map":"Yes"},{"@odata.etag":"","ItemInternalId":"7a41aea1-b58b-49b0-a0a3-0c4b316559ac","Full Name":"Seaham Trinity Primary School","School Phase":"Primary","Local Authority Area":"Durham","Area":"North East 1","Region":"The North of England","Preferred Address Line 1":"Princess Road\nSeaham","Preferred Town":"DURHAM","Preferred County":"","Preferred Postcode":"SR7 7SP","Latitude":"54.8353949","Longitude":"-1.3410405","Visable on Map":"Yes"},{"@odata.etag":"","ItemInternalId":"0cc7735b-3db2-4d5f-9793-19f488a8e47f","Full Name":"Seascape Primary School","School Phase":"Primary","Local Authority Area":"Durham","Area":"North East 1","Region":"The North of England","Preferred Address Line 1":"Ellison Road","Preferred Town":"PETERLEE","Preferred County":"Co. Durham","Preferred Postcode":"SR8 5NJ","Latitude":"54.7635667","Longitude":"-1.3266972","Visable on Map":"Yes"},{"@odata.etag":"","ItemInternalId":"0fb289e5-4910-4c17-a0dc-a571292f7b9c","Full Name":"Timothy Hackworth Primary School","School Phase":"Primary","Local Authority Area":"Durham","Area":"North East 1","Region":"The North of England","Preferred Address Line 1":"Byerley Road","Preferred Town":"SHILDON","Preferred County":"County Durham","Preferred Postcode":"DL4 1HN","Latitude":"54.6270095","Longitude":"-1.6493762","Visable on Map":"Yes"},{"@odata.etag":"","ItemInternalId":"df9ec6ae-cd8a-47b1-8d39-dff23c3e68fb","Full Name":"Easington Colliery Primary School","School Phase":"Primary","Local Authority Area":"Durham","Area":"North East 2","Region":"The North of England","Preferred Address Line 1":"Whickham Street\nEasington Colliery","Preferred Town":"PETERLEE","Preferred County":"Co. Durham","Preferred Postcode":"SR8 3DJ","Latitude":"54.7873827","Longitude":"-1.3400017","Visable on Map":"Yes"},{"@odata.etag":"","ItemInternalId":"5a89934c-b555-4c71-9cee-357854b7730d","Full Name":"Mill Hill Primary School","School Phase":"Primary","Local Authority Area":"Sunderland","Area":"North East 2","Region":"The North of England","Preferred Address Line 1":"Doxford Park","Preferred Town":"SUNDERLAND","Preferred County":"Tyne And Wear","Preferred Postcode":"SR3 2LE","Latitude":"54.866072","Longitude":"-1.4067272","Visable on Map":"Yes"},{"@odata.etag":"","ItemInternalId":"b438d926-5351-48e9-b2d3-07f02c6d4ae1","Full Name":"Northern Saints Church of England Academy","School Phase":"Primary","Local Authority Area":"Sunderland","Area":"North East 2","Region":"The North of England","Preferred Address Line 1":"Rotherham Road","Preferred Town":"SUNDERLAND","Preferred County":"Tyne And Wear","Preferred Postcode":"SR5 5QL","Latitude":"54.9240025","Longitude":"-1.4300446","Visable on Map":"Yes"},{"@odata.etag":"","ItemInternalId":"e9caf0a9-0009-4fd9-8756-6a6e3e9f3a3e","Full Name":"Balgreen Primary School","School Phase":"Primary","Local Authority Area":"City of Edinburgh","Area":"Scotland East","Region":"Scotland","Preferred Address Line 1":"171 Balgreen Road","Preferred Town":"EDINBURGH","Preferred County":"Midlothian","Preferred Postcode":"EH11 3AT","Latitude":"55.9373299","Longitude":"-3.248376","Visable on Map":"Yes"},{"@odata.etag":"","ItemInternalId":"411a41cd-1dc9-4be0-a9fc-51beae17565a","Full Name":"Canal View Primary School","School Phase":"Primary","Local Authority Area":"City of Edinburgh","Area":"Scotland East","Region":"Scotland","Preferred Address Line 1":"4 Hailesland Place","Preferred Town":"EDINBURGH","Preferred County":"","Preferred Postcode":"EH14 2SL","Latitude":"55.9167726","Longitude":"-3.2797161","Visable on Map":"Yes"},{"@odata.etag":"","ItemInternalId":"ac1d8f26-f76c-482b-94cd-f22e4d3a402e","Full Name":"Craigroyston Primary School","School Phase":"Primary","Local Authority Area":"City of Edinburgh","Area":"Scotland East","Region":"Scotland","Preferred Address Line 1":"7 Muirhouse Place West","Preferred Town":"EDINBURGH","Preferred County":"","Preferred Postcode":"EH4 4PX","Latitude":"55.96925","Longitude":"-3.2542266","Visable on Map":"Yes"},{"@odata.etag":"","ItemInternalId":"82879a11-798a-461f-919c-a149fc9482af","Full Name":"ESMS Junior School","School Phase":"Primary","Local Authority Area":"City of Edinburgh","Area":"Scotland East","Region":"Scotland","Preferred Address Line 1":"11 Queensferry Terrace","Preferred Town":"EDINBURGH","Preferred County":"","Preferred Postcode":"EH4 3EZ","Latitude":"55.9537683","Longitude":"-3.2265152","Visable on Map":"Yes"},{"@odata.etag":"","ItemInternalId":"5bad4d6b-176b-43fe-abce-e33a720632c5","Full Name":"Forthview Primary School","School Phase":"Primary","Local Authority Area":"City of Edinburgh","Area":"Scotland East","Region":"Scotland","Preferred Address Line 1":"West Pilton Place","Preferred Town":"EDINBURGH","Preferred County":"Midlothian","Preferred Postcode":"EH4 4DF","Latitude":"55.9709219","Longitude":"-3.2408536","Visable on Map":"Yes"},{"@odata.etag":"","ItemInternalId":"e55da5bd-0e6f-4514-8c6d-e18d0b133771","Full Name":"Longstone Primary School","School Phase":"Primary","Local Authority Area":"City of Edinburgh","Area":"Scotland East","Region":"Scotland","Preferred Address Line 1":"Redhall Grove","Preferred Town":"EDINBURGH","Preferred County":"","Preferred Postcode":"EH14 2DU","Latitude":"55.9215019","Longitude":"-3.2611491","Visable on Map":"Yes"},{"@odata.etag":"","ItemInternalId":"bc8e578d-cca8-4af6-ac62-b2266dd27e22","Full Name":"Niddrie Mill Primary School","School Phase":"Primary","Local Authority Area":"City of Edinburgh","Area":"Scotland East","Region":"Scotland","Preferred Address Line 1":"20 Moffat Way","Preferred Town":"EDINBURGH","Preferred County":"","Preferred Postcode":"EH16 4PY","Latitude":"55.9339322","Longitude":"-3.1263862","Visable on Map":"Yes"},{"@odata.etag":"","ItemInternalId":"26792da7-e50c-4c3d-9a4d-c857bba6e950","Full Name":"St John Vianney Roman Catholic Primary School","School Phase":"Primary","Local Authority Area":"City of Edinburgh","Area":"Scotland East","Region":"Scotland","Preferred Address Line 1":"17 Ivanhoe Crescent","Preferred Town":"EDINBURGH","Preferred County":"","Preferred Postcode":"EH16 6AU","Latitude":"55.9189225","Longitude":"-3.1578251","Visable on Map":"Yes"},{"@odata.etag":"","ItemInternalId":"7ccb96f0-b23f-4823-aacc-b27353df393b","Full Name":"Stewart's Melville College","School Phase":"Secondary","Local Authority Area":"City of Edinburgh","Area":"Scotland East","Region":"Scotland","Preferred Address Line 1":"Queensferry Road","Preferred Town":"EDINBURGH","Preferred County":"","Preferred Postcode":"EH4 3EZ","Latitude":"55.9537683","Longitude":"-3.2265152","Visable on Map":"Yes"},{"@odata.etag":"","ItemInternalId":"1902313d-ee60-4c5b-9a18-dc64a32edf04","Full Name":"The Mary Erskine School","School Phase":"Secondary","Local Authority Area":"City of Edinburgh","Area":"Scotland East","Region":"Scotland","Preferred Address Line 1":"Ravelston","Preferred Town":"EDINBURGH","Preferred County":"","Preferred Postcode":"EH4 3NT","Latitude":"55.9528606","Longitude":"-3.254209","Visable on Map":"Yes"},{"@odata.etag":"","ItemInternalId":"09221995-e766-440e-9667-5c3b1b7021af","Full Name":"Fernielea Primary School","School Phase":"Primary","Local Authority Area":"Aberdeen","Area":"Scotland North","Region":"Scotland","Preferred Address Line 1":"Stronsay Place","Preferred Town":"ABERDEEN","Preferred County":"","Preferred Postcode":"AB15 6HD","Latitude":"57.1487516","Longitude":"-2.1593031","Visable on Map":"Yes"},{"@odata.etag":"","ItemInternalId":"d49fda5f-e1e2-4068-8298-e479139a94fc","Full Name":"Quarryhill Primary School","School Phase":"Primary","Local Authority Area":"Aberdeen","Area":"Scotland North","Region":"Scotland","Preferred Address Line 1":"Birkhall Parade","Preferred Town":"ABERDEEN","Preferred County":"","Preferred Postcode":"AB16 5QT","Latitude":"57.1607282","Longitude":"-2.1575196","Visable on Map":"Yes"},{"@odata.etag":"","ItemInternalId":"12081cc6-f234-442f-877c-dd00a1ef1046","Full Name":"Hazlehead Academy","School Phase":"Secondary","Local Authority Area":"Aberdeen","Area":"Scotland North","Region":"Scotland","Preferred Address Line 1":"Groats Rd","Preferred Town":"ABERDEEN","Preferred County":"","Preferred Postcode":"AB15 8BE","Latitude":"57.144261","Longitude":"-2.1786015","Visable on Map":"Yes"},{"@odata.etag":"","ItemInternalId":"b72f3237-502b-4005-846b-29e4f5b49537","Full Name":"Holy Cross Primary School","School Phase":"Primary","Local Authority Area":"Glasgow City","Area":"Scotland West","Region":"Scotland","Preferred Address Line 1":"316 Calder Street","Preferred Town":"GLASGOW","Preferred County":"","Preferred Postcode":"G42 7NH","Latitude":"55.8363001","Longitude":"-4.2550375","Visable on Map":"Yes"},{"@odata.etag":"","ItemInternalId":"9ba74fb6-ebe0-4312-906d-29625d2f9ac9","Full Name":"Oakwood Primary School","School Phase":"Primary","Local Authority Area":"Glasgow City","Area":"Scotland West","Region":"Scotland","Preferred Address Line 1":"22 Drumlanrig Avenue","Preferred Town":"GLASGOW","Preferred County":"","Preferred Postcode":"G34 0JD","Latitude":"55.8690527","Longitude":"-4.0995124","Visable on Map":"Yes"},{"@odata.etag":"","ItemInternalId":"b954030f-992f-46c8-8da9-a19fa8990ca8","Full Name":"Gowanbank","School Phase":"Primary","Local Authority Area":"Glasgow City","Area":"Scotland West","Region":"Scotland","Preferred Address Line 1":"1 Craigbank Drive","Preferred Town":"GLASGOW","Preferred County":"","Preferred Postcode":"G53 6RA","Latitude":"55.8163135","Longitude":"-4.3623857","Visable on Map":"Yes"},{"@odata.etag":"","ItemInternalId":"7adeeea8-a777-46a8-999e-6b658ced9c1e","Full Name":"St Catherine's Primary School","School Phase":"Primary","Local Authority Area":"Glasgow City","Area":"Scotland West","Region":"Scotland","Preferred Address Line 1":"274 Rye Road","Preferred Town":"GLASGOW","Preferred County":"","Preferred Postcode":"G21 3JR","Latitude":"55.8879562","Longitude":"-4.207164","Visable on Map":"Yes"},{"@odata.etag":"","ItemInternalId":"bd32e211-b1be-4e70-b85c-50273d350617","Full Name":"St Monica's (Milton) Primary School","School Phase":"Primary","Local Authority Area":"Glasgow City","Area":"Scotland West","Region":"Scotland","Preferred Address Line 1":"200 Liddesdale Road","Preferred Town":"GLASGOW","Preferred County":"Glasgow City Centre","Preferred Postcode":"G22 7QX","Latitude":"55.8972064","Longitude":"-4.2452948","Visable on Map":"Yes"},{"@odata.etag":"","ItemInternalId":"ab7094ec-db5f-4fba-8c2e-0f213dddd418","Full Name":"St Paul's Primary School","School Phase":"Primary","Local Authority Area":"Renfrewshire","Area":"Scotland West","Region":"Scotland","Preferred Address Line 1":"Morar Drive, Foxbar, ","Preferred Town":"PAISLEY","Preferred County":"Renfrewshire","Preferred Postcode":"PA2 9FA","Latitude":"55.8297682","Longitude":"-4.4611299","Visable on Map":"Yes"},{"@odata.etag":"","ItemInternalId":"c216a154-b7ed-4ad4-93a3-b93fb844896a","Full Name":"Grange Town Primary","School Phase":"Primary","Local Authority Area":"Cardiff","Area":"South Wales","Region":"Midlands and Wales","Preferred Address Line 1":"Bromsgrove Street\nGrangetown","Preferred Town":"CARDIFF","Preferred County":"","Preferred Postcode":"CF11 7XS","Latitude":"51.4658591","Longitude":"-3.1832432","Visable on Map":"Yes"},{"@odata.etag":"","ItemInternalId":"5223a4a5-d719-43f2-b74d-a2cf07a001bf","Full Name":"Moorland Primary School","School Phase":"Primary","Local Authority Area":"Cardiff","Area":"South Wales","Region":"Midlands and Wales","Preferred Address Line 1":"Singleton Road\nSplott","Preferred Town":"CARDIFF","Preferred County":"","Preferred Postcode":"CF24 2LJ","Latitude":"51.4800534","Longitude":"-3.145622","Visable on Map":"Yes"},{"@odata.etag":"","ItemInternalId":"f946e87a-d52f-4903-9586-fb66c7f6e88a","Full Name":"Rye College","School Phase":"Secondary","Local Authority Area":"East Sussex","Area":"Sussex","Region":"London and South","Preferred Address Line 1":"The Grove","Preferred Town":"RYE","Preferred County":"East Sussex","Preferred Postcode":"TN31 7NQ","Latitude":"50.9550534","Longitude":"0.73165","Visable on Map":"Yes"},{"@odata.etag":"","ItemInternalId":"fb9f06b2-e809-4d6c-9b37-aad6a0b9c0e1","Full Name":"The Brakenhale School","School Phase":"Secondary","Local Authority Area":"Bracknell Forest","Area":"West Counties","Region":"London and West","Preferred Address Line 1":"Rectory Lane","Preferred Town":"BRACKNELL","Preferred County":"Berkshire","Preferred Postcode":"RG12 7BA","Latitude":"51.4065436","Longitude":"-0.7508179","Visable on Map":"Yes"},{"@odata.etag":"","ItemInternalId":"1dca1435-3ad6-48ad-80c5-ec516b5fffdd","Full Name":"The Langley Academy","School Phase":"Secondary","Local Authority Area":"Slough","Area":"West Counties","Region":"London and West","Preferred Address Line 1":"Langley Road\nLangley","Preferred Town":"SLOUGH","Preferred County":"Berkshire","Preferred Postcode":"SL3 7EF","Latitude":"51.5045887","Longitude":"-0.553293","Visable on Map":"Yes"},{"@odata.etag":"","ItemInternalId":"3401adc0-a188-4a9f-96b7-af73c1552141","Full Name":"The Langley Academy Primary","School Phase":"Primary","Local Authority Area":"Slough","Area":"West Counties","Region":"London and West","Preferred Address Line 1":"Langley Road\nLangley","Preferred Town":"SLOUGH","Preferred County":"Berkshire","Preferred Postcode":"SL3 7EF","Latitude":"51.5045887","Longitude":"-0.553293","Visable on Map":"Yes"},{"@odata.etag":"","ItemInternalId":"ee1a9ad4-4331-43bd-84f9-cac7e4237f69","Full Name":"Ditton Park Academy","School Phase":"Secondary","Local Authority Area":"Slough","Area":"West Counties","Region":"London and West","Preferred Address Line 1":"Kings Reach","Preferred Town":"SLOUGH","Preferred County":"Berkshire","Preferred Postcode":"SL3 7UX","Latitude":"51.4977456","Longitude":"-0.5723677","Visable on Map":"Yes"},{"@odata.etag":"","ItemInternalId":"d5d9308c-0adf-4bf4-99b8-9f1508bdd365","Full Name":"Cranbrook School","School Phase":"Secondary","Local Authority Area":"Kent","Area":"West Kent","Region":"London and South","Preferred Address Line 1":"Waterloo Road","Preferred Town":"CRANBROOK","Preferred County":"Kent","Preferred Postcode":"TN17 3JD","Latitude":"51.0969278","Longitude":"0.5382918","Visable on Map":"Yes"},{"@odata.etag":"","ItemInternalId":"8c3f9b93-1534-45c5-9a37-c0c129f5b652","Full Name":"St Gregory's Catholic School","School Phase":"Secondary","Local Authority Area":"Kent","Area":"West Kent","Region":"London and South","Preferred Address Line 1":"Reynolds Lane","Preferred Town":"TUNBRIDGE WELLS","Preferred County":"Kent","Preferred Postcode":"TN4 9XL","Latitude":"51.1474414","Longitude":"0.2537289","Visable on Map":"Yes"},{"@odata.etag":"","ItemInternalId":"e38c9a4f-024e-4698-8fc1-510b1314f231","Full Name":"St Simon Stock Catholic School","School Phase":"Secondary","Local Authority Area":"Kent","Area":"West Kent","Region":"London and South","Preferred Address Line 1":"Oakwood Park","Preferred Town":"MAIDSTONE","Preferred County":"Kent","Preferred Postcode":"ME16 0JP","Latitude":"51.2731058","Longitude":"0.4965901","Visable on Map":"Yes"},{"@odata.etag":"","ItemInternalId":"91348429-7019-43a1-929d-8180859f74f4","Full Name":"Ark Boulton Academy","School Phase":"Secondary","Local Authority Area":"Birmingham","Area":"West Midlands","Region":"Midlands and Wales","Preferred Address Line 1":"Golden Hillock Road\nSparkhill","Preferred Town":"BIRMINGHAM","Preferred County":"West Midlands","Preferred Postcode":"B11 2QG","Latitude":"52.4584663","Longitude":"-1.8606016","Visable on Map":"Yes"},{"@odata.etag":"","ItemInternalId":"dc696db1-52e0-4e19-a5ab-e2b47354a9b6","Full Name":"Bentley West Primary School Additionally Resourced for Hearing Impaired","School Phase":"Primary","Local Authority Area":"Walsall","Area":"West Midlands","Region":"Midlands and Wales","Preferred Address Line 1":"Monmouth Road\nBentley","Preferred Town":"WALSALL","Preferred County":"West Midlands","Preferred Postcode":"WS2 0EQ","Latitude":"52.58995","Longitude":"-2.0278991","Visable on Map":"Yes"},{"@odata.etag":"","ItemInternalId":"c6e61da9-a305-416f-a732-8e5007ba414c","Full Name":"Grace Academy","School Phase":"Secondary","Local Authority Area":"Birmingham","Area":"West Midlands","Region":"Midlands and Wales","Preferred Address Line 1":"Chapel House Road","Preferred Town":"BIRMINGHAM","Preferred County":"West Midlands","Preferred Postcode":"B37 5JS","Latitude":"52.4752239","Longitude":"-1.755371","Visable on Map":"Yes"},{"@odata.etag":"","ItemInternalId":"25fea1a9-7543-4f80-9326-512ad93d26cf","Full Name":"King Edward VI Lordswood School for Girls","School Phase":"Secondary","Local Authority Area":"Birmingham","Area":"West Midlands","Region":"Midlands and Wales","Preferred Address Line 1":"Knightlow Road, \nHarborne,","Preferred Town":"BIRMINGHAM","Preferred County":"","Preferred Postcode":"B17 8QB","Latitude":"52.4687551","Longitude":"-1.9632141","Visable on Map":"Yes"},{"@odata.etag":"","ItemInternalId":"c58b4fc3-8c39-40d6-b3d3-6b9ce6ea433d","Full Name":"Sandwell Academy","School Phase":"Secondary","Local Authority Area":"Sandwell","Area":"West Midlands","Region":"Midlands and Wales","Preferred Address Line 1":"Halfords Lane","Preferred Town":"WEST BROMWICH","Preferred County":"West Midlands","Preferred Postcode":"B71 4LG","Latitude":"52.5070351","Longitude":"-1.9659228","Visable on Map":"Yes"},{"@odata.etag":"","ItemInternalId":"fefd8011-600c-4a65-beef-bcacdba3924a","Full Name":"The Priory","School Phase":"All Through","Local Authority Area":"Birmingham","Area":"West Midlands","Region":"Midlands and Wales","Preferred Address Line 1":"39 Sir Harry’s Road","Preferred Town":"Edgbaston","Preferred County":"Birmingham","Preferred Postcode":"B15 2UR","Latitude":"52.461089","Longitude":"-1.9150344","Visable on Map":"Yes"},{"@odata.etag":"","ItemInternalId":"86583be8-c955-4367-9509-6ec69b2820d8","Full Name":"Allerton High School","School Phase":"Secondary","Local Authority Area":"Leeds","Area":"Yorkshire 1","Region":"The North of England","Preferred Address Line 1":"King Lane","Preferred Town":"LEEDS","Preferred County":"West Yorkshire","Preferred Postcode":"LS17 7AG","Latitude":"53.8504785","Longitude":"-1.5527402","Visable on Map":"Yes"},{"@odata.etag":"","ItemInternalId":"219ba16a-3985-40c4-9779-c5ae338303f7","Full Name":"Beechwood Primary School","School Phase":"Primary","Local Authority Area":"Leeds","Area":"Yorkshire 1","Region":"The North of England","Preferred Address Line 1":"Kentmere Avenue \nSeacroft","Preferred Town":"LEEDS","Preferred County":"Yorkshire","Preferred Postcode":"LS14 6QB","Latitude":"53.8186536","Longitude":"-1.4692942","Visable on Map":"Yes"},{"@odata.etag":"","ItemInternalId":"bae4b0a5-55fa-4a81-898e-d54585729271","Full Name":"Bruntcliffe Academy","School Phase":"Secondary","Local Authority Area":"Leeds","Area":"Yorkshire 1","Region":"The North of England","Preferred Address Line 1":"Bruntcliffe Lane\nMorley","Preferred Town":"LEEDS","Preferred County":"West Yorkshire","Preferred Postcode":"LS27 0LZ","Latitude":"53.744953","Longitude":"-1.6215172","Visable on Map":"Yes"},{"@odata.etag":"","ItemInternalId":"cd8cf163-a902-4f70-91c7-00787707f45f","Full Name":"Grange Farm Primary School","School Phase":"Primary","Local Authority Area":"Leeds","Area":"Yorkshire 1","Region":"The North of England","Preferred Address Line 1":"Barncroft Rise","Preferred Town":"LEEDS","Preferred County":"West Yorkshire","Preferred Postcode":"LS14 1AX","Latitude":"53.8277868","Longitude":"-1.473691","Visable on Map":"Yes"},{"@odata.etag":"","ItemInternalId":"6d7fe7b0-f8f5-4785-a0c7-a062ad4a65ba","Full Name":"Hugh Gaitskell Primary School","School Phase":"Primary","Local Authority Area":"Leeds","Area":"Yorkshire 1","Region":"The North of England","Preferred Address Line 1":"St Anthony’s Drive","Preferred Town":"LEEDS","Preferred County":"","Preferred Postcode":"LS11 8AB","Latitude":"53.7718022","Longitude":"-1.5663062","Visable on Map":"Yes"},{"@odata.etag":"","ItemInternalId":"7bbff27b-1739-473c-a79f-e0de62743c25","Full Name":"John Smeaton Academy","School Phase":"Secondary","Local Authority Area":"Leeds","Area":"Yorkshire 1","Region":"The North of England","Preferred Address Line 1":"Smeaton Approach \nBarwick Road","Preferred Town":"LEEDS","Preferred County":"","Preferred Postcode":"LS15 8TA","Latitude":"53.8154402","Longitude":"-1.4347966","Visable on Map":"Yes"},{"@odata.etag":"","ItemInternalId":"7709a3a9-140f-4c21-8d7b-dae7faec3a16","Full Name":"The Morley Academy","School Phase":"Secondary","Local Authority Area":"Leeds","Area":"Yorkshire 1","Region":"The North of England","Preferred Address Line 1":"Fountain Street  \nMorley \nLeeds","Preferred Town":"WEST YORKSHIRE","Preferred County":"","Preferred Postcode":"LS27 0PD","Latitude":"53.7432598","Longitude":"-1.6010635","Visable on Map":"Yes"},{"@odata.etag":"","ItemInternalId":"9d35c827-a061-46d1-b195-a1a88b942bdb","Full Name":"Boston Spa Academy","School Phase":"Secondary","Local Authority Area":"Leeds","Area":"Yorkshire 2","Region":"The North of England","Preferred Address Line 1":"Clifford Moor Road\nBoston Spa","Preferred Town":"WETHERBY","Preferred County":"West Yorkshire","Preferred Postcode":"LS23 6RW","Latitude":"53.900102","Longitude":"-1.3620039","Visable on Map":"Yes"}]