[{"name": "Folkestone Academy", "phase": "Secondary", "authority": "Kent", "region": "London and South", "postcode": "CT19 5FP", "town": "nan", "address": "Academy Lane \nFolkestone Kent CT19 5FP", "lat": 51.092542, "lng": 1.1676576}, {"name": "Hartsdown Academy", "phase": "Secondary", "authority": "Kent", "region": "London and South", "postcode": "CT9 5RE", "town": "MARGATE", "address": "George V Avenue MARGATE Kent CT9 5RE", "lat": 51.3798665, "lng": 1.3680008}, {"name": "Highsted Grammer", "phase": "Secondary", "authority": "Kent", "region": "London and South", "postcode": "ME10 4PT", "town": "nan", "address": "Sittingbourne  Kent ME10 4PT", "lat": 51.3335463, "lng": 0.7374417}, {"name": "Highworth Grammer", "phase": "Secondary", "authority": "Kent", "region": "London and South", "postcode": "TN24 8UD", "town": "Ashford", "address": "Maidstone Road Ashford Kent TN24 8UD", "lat": 51.1542211, "lng": 0.8640083}, {"name": "The Canterbury Academy", "phase": "Secondary", "authority": "Kent", "region": "London and South", "postcode": "CT2 8QA", "town": "CANTERBURY", "address": "Knight Avenue CANTERBURY Kent CT2 8QA", "lat": 51.2786286, "lng": 1.062937}, {"name": "The Canterbury Primary School", "phase": "Primary", "authority": "Kent", "region": "London and South", "postcode": "CT2 8PT", "town": "CANTERBURY", "address": "City View\nFranklyn Road CANTERBURY Kent CT2 8PT", "lat": 51.2773836, "lng": 1.0592976}, {"name": "Turner Free School", "phase": "Secondary", "authority": "Folkestone", "region": "London and South", "postcode": "CT19 4PB", "town": "Kent", "address": "Tile Kiln Ln Kent Folkestone CT19 4PB", "lat": 51.0916221, "lng": 1.1477835}, {"name": "Dover Christ Church Academy", "phase": "Secondary", "authority": "Dover", "region": "London and South", "postcode": "CT16 2EG", "town": "Dover", "address": "Melbourne Avenue Dover Kent CT16 2EG", "lat": 51.1503928, "lng": 1.3001226}, {"name": "Larkfields Junior School", "phase": "Primary", "authority": "Nottinghamshire", "region": "Midlands and Wales", "postcode": "NG16 1EP", "town": "NOTTINGHAMSHIRE", "address": "Coronation Road \nNuthall \nNottingham NOTTINGHAMSHIRE NG16 1EP", "lat": 52.9952237, "lng": -1.2410108}, {"name": "Mellers Primary School", "phase": "Primary", "authority": "Nottingham", "region": "Midlands and Wales", "postcode": "NG7 3HJ", "town": "NOTTINGHAM", "address": "Norton Street \nRadford NOTTINGHAM NG7 3HJ", "lat": 52.9597685, "lng": -1.1734643}, {"name": "Nicholas Chamberlaine School", "phase": "Secondary", "authority": "Warwickshire", "region": "Midlands and Wales", "postcode": "CV12 9EA", "town": "BEDWORTH", "address": "Bulkington Road BEDWORTH Warwickshire CV12 9EA", "lat": 52.4800071, "lng": -1.4598446}, {"name": "Pear Tree Community Junior School", "phase": "Primary", "authority": "Derby", "region": "Midlands and Wales", "postcode": "DE23 8PN", "town": "DERBY", "address": "Pear Tree Street DERBY Derbyshire DE23 8PN", "lat": 52.9029037, "lng": -1.474168}, {"name": "Rosslyn Park Primary and Nursery School", "phase": "Primary", "authority": "Nottingham", "region": "Midlands and Wales", "postcode": "NG8 6DD", "town": "NOTTINGHAM", "address": "Amesbury Circus\nOff Bells Lane\nAspley NOTTINGHAM NG8 6DD", "lat": 52.9845362, "lng": -1.2067151}, {"name": "Ark Isaac Newton", "phase": "All Through", "authority": "Essex", "region": "London and South", "postcode": "IG1 1FY", "town": "Ilford", "address": "1 Cricklefield Pl Ilford IG1 1FY", "lat": 51.5618031, "lng": 0.0915731}, {"name": "Stewards Academy - Science Specialist, Harlow", "phase": "Secondary", "authority": "Essex", "region": "London and South", "postcode": "CM18 7NQ", "town": "HARLOW", "address": "Parnall Road HARLOW CM18 7NQ", "lat": 51.750736, "lng": 0.0926701}, {"name": "Oasis Academy Oldham", "phase": "Secondary", "authority": "Oldham", "region": "The North of England", "postcode": "OL8 4JZ", "town": "OLDHAM", "address": "Hollins Road OLDHAM Greater Manchester OL8 4JZ", "lat": 53.5214807, "lng": -2.1327199}, {"name": "Moss Valley Primary Academy", "phase": "Primary", "authority": "Salford", "region": "The North of England", "postcode": "M44 6GX", "town": "SALFORD", "address": "Cutnook Lane\nIrlam SALFORD Greater Manchester M44 6GX", "lat": 53.4538251, "lng": -2.417361}, {"name": "Broadfield Primary School", "phase": "Primary", "authority": "Oldham", "region": "The North of England", "postcode": "OL8 1LH", "town": "OLDHAM", "address": "Goddard Street OLDHAM Greater Manchester OL8 1LH", "lat": 53.5325859, "lng": -2.1106375}, {"name": "Higher Failsworth Primary School", "phase": "Primary", "authority": "Oldham", "region": "The North of England", "postcode": "M35 9EA", "town": "FAILSWORTH", "address": "Stansfield Road FAILSWORTH Greater Manchester M35 9EA", "lat": 53.5133644, "lng": -2.1478196}, {"name": "Bolton St Catherine's Academy", "phase": "All Through", "authority": "Bolton", "region": "The North of England", "postcode": "BL2 4HU", "town": "MANCHESTER", "address": "Stitch-Mi-Lane MANCHESTER Greater Manchester BL2 4HU", "lat": 53.5925, "lng": -2.389}, {"name": "Philips High School", "phase": "Secondary", "authority": "Bury", "region": "The North of England", "postcode": "M45 7PH", "town": "MANCHESTER", "address": "Higher Lane\nWhitefield MANCHESTER M45 7PH", "lat": 53.5463015, "lng": -2.2994843}, {"name": "Haveley Hey Community School", "phase": "Primary", "authority": "Manchester", "region": "The North of England", "postcode": "M22 9NS", "town": "GREATER MANCHESTER", "address": "Nearbrook Road \nWythenshawe\nManchester GREATER MANCHESTER M22 9NS", "lat": 53.3852575, "lng": -2.264028}, {"name": "St Margaret's CofE Primary School", "phase": "Primary", "authority": "Manchester", "region": "The North of England", "postcode": "M16 8FQ", "town": "MANCHESTER", "address": "Withington Road\nWhalley Range MANCHESTER M16 8FQ", "lat": 53.4494835, "lng": -2.2586897}, {"name": "The Willows Primary School", "phase": "Primary", "authority": "Manchester", "region": "The North of England", "postcode": "M22 1BQ", "town": "MANCHESTER", "address": "Tayfield Road \nWoodhouse Park \nWythenshawe MANCHESTER M22 1BQ", "lat": 53.3750067, "lng": -2.2657382}, {"name": "Churchfield Primary School", "phase": "Primary", "authority": "Enfield", "region": "London and West", "postcode": "N9 9PL", "town": "LONDON", "address": "Latymer Road LONDON N9 9PL", "lat": 51.6302227, "lng": -0.0665074}, {"name": "Lavender Primary School", "phase": "Primary", "authority": "Enfield", "region": "London and West", "postcode": "EN2 0SX", "town": "LONDON", "address": "Lavender Road\nEnfield LONDON Middlesex EN2 0SX", "lat": 51.6651515, "lng": -0.0781506}, {"name": "Laureate Academy", "phase": "Secondary", "authority": "Hemel Hempstead", "region": "London and West", "postcode": "HP1 3DW", "town": "Hemel Hempstead", "address": "Warners End Road Hemel Hempstead Hertfordshire HP1 3DW", "lat": 51.757582, "lng": -0.4831367}, {"name": "Barclay Academy", "phase": "Secondary", "authority": "Stevenage", "region": "London and West", "postcode": "SG1 3RB", "town": "Stevenage", "address": "Walkern Road Stevenage Hertfordshire SG1 3RB", "lat": 51.9145746, "lng": -0.2026121}, {"name": "Ark King Solomon Academy", "phase": "All Through", "authority": "Westminster", "region": "London and West", "postcode": "NW1 6RX", "town": "LONDON", "address": "Penfold Street LONDON Middlesex NW1 6RX", "lat": 51.5215701, "lng": -0.169306}, {"name": "Ashmount Primary School", "phase": "Primary", "authority": "Islington", "region": "London and West", "postcode": "N8 9EG", "town": "LONDON", "address": "Crouch Hill Park\n83 Crouch Hill LONDON N8 9EG", "lat": 51.5745036, "lng": -0.1217644}, {"name": "Hanover Primary School", "phase": "Primary", "authority": "Islington", "region": "London and West", "postcode": "N1 8BD", "town": "LONDON", "address": "Noel Road \nIslington LONDON N1 8BD", "lat": 51.5329794, "lng": -0.0990638}, {"name": "Knightsbridge School", "phase": "Preparatory", "authority": "Kensington and Chelsea", "region": "London and West", "postcode": "SW1X 0BD", "town": " LONDON", "address": "67 Pont Street   LONDON SW1X 0BD", "lat": 51.4965951, "lng": -0.1622247}, {"name": "Pimlico Academy", "phase": "Secondary", "authority": "Westminster", "region": "London and West", "postcode": "SW1V 3AT", "town": "LONDON", "address": "Lupus Street LONDON SW1V 3AT", "lat": 51.4881789, "lng": -0.1371975}, {"name": "Sacred Heart Catholic Primary School", "phase": "Primary", "authority": "Islington", "region": "London and West", "postcode": "N7 8JN", "town": "LONDON", "address": "68 Georges Road\nHolloway LONDON N7 8JN", "lat": 51.5502196, "lng": -0.1136489}, {"name": "Portway Primary School", "phase": "Primary", "authority": "Newham", "region": "London and South", "postcode": "E13 0JW", "town": "LONDON", "address": "Stratford Road \nPlaistow LONDON E13 0JW", "lat": 51.5336136, "lng": 0.0190514}, {"name": "Stratford School Academy", "phase": "Secondary", "authority": "Stratford", "region": "London and South", "postcode": "E7 8JA", "town": "London", "address": "Grosvenor Road London E7 8JA", "lat": 51.5427553, "lng": 0.0291763}, {"name": "Brampton Manor Academy", "phase": "Secondary", "authority": "Newham", "region": "London and South", "postcode": "E6 3SQ", "town": "London", "address": "Roman Road  London E6 3SQ", "lat": 51.5209686, "lng": 0.0461108}, {"name": "Bow School", "phase": "Secondary", "authority": "Tower Hamlets", "region": "London and South", "postcode": "E3 3QW", "town": "LONDON", "address": "Bow School,  \n44 Twelvetrees Crescent, LONDON E3 3QW", "lat": 51.5233913, "lng": -0.0094966}, {"name": "George Green's School", "phase": "Secondary", "authority": "Tower Hamlets", "region": "London and South", "postcode": "E14 3DW", "town": "LONDON", "address": "100 Manchester Road  \nIsle Of Dogs LONDON E14 3DW", "lat": 51.4881264, "lng": -0.0076335}, {"name": "St John's Church of England Primary School", "phase": "Primary", "authority": "Tower Hamlets", "region": "London and South", "postcode": "E2 9LR", "town": "LONDON", "address": "Peel Grove \nBethnal Green LONDON E2 9LR", "lat": 51.5300255, "lng": -0.0543774}, {"name": "St Paul's Whitechapel Church of England Primary School", "phase": "Primary", "authority": "Tower Hamlets", "region": "London and South", "postcode": "E1 8HY", "town": "LONDON", "address": "Wellclose Square LONDON E1 8HY", "lat": 51.5100898, "lng": -0.065848}, {"name": "The Bridge Academy", "phase": "Secondary", "authority": "Hackney", "region": "London and South", "postcode": "E2 8BA", "town": "LONDON", "address": "Hackney \nLaburnum Street LONDON E2 8BA", "lat": 51.53566, "lng": -0.0726659}, {"name": "William Patten Primary School", "phase": "Primary", "authority": "Hackney", "region": "London and South", "postcode": "N16 0NX", "town": "LONDON", "address": "Stoke Newington Church Street LONDON N16 0NX", "lat": 51.5618029, "lng": -0.0749512}, {"name": "Ark John Keats Academy", "phase": "All Through", "authority": "Enfield", "region": "London and West", "postcode": "EN3 5PA", "town": "nan", "address": "Bell Lane   \nEnfield  \nLondon EN3 5PA", "lat": 51.6659319, "lng": -0.0367168}, {"name": "Christ The King Catholic Primary School", "phase": "Primary", "authority": "Islington", "region": "London and West", "postcode": "N4 3QW", "town": "LONDON", "address": "55 Tollington Park LONDON N4 3QW", "lat": 51.5668786, "lng": -0.1139551}, {"name": "Fortismere School", "phase": "Secondary", "authority": "Haringey", "region": "London and West", "postcode": "N10 1NE", "town": "LONDON", "address": "Southwing \nTetherdown \nMuswell Hill LONDON N10 1NE", "lat": 51.5927806, "lng": -0.1509244}, {"name": "Heartlands High School", "phase": "Secondary", "authority": "Haringey", "region": "London and West", "postcode": "N22 7ST", "town": "LONDON", "address": "Station Road\nWood Green LONDON N22 7ST", "lat": 51.5976375, "lng": -0.119294}, {"name": "Highfield Primary School", "phase": "Primary", "authority": "Enfield", "region": "London and West", "postcode": "N21 3HE", "town": "LONDON", "address": "Highfield Road LONDON N21 3HE", "lat": 51.6294373, "lng": -0.0943695}, {"name": "London Academy", "phase": "All Through", "authority": "Barnet", "region": "London and West", "postcode": "HA8 8DE", "town": "EDGWARE", "address": "Spur Road EDGWARE Middlesex HA8 8DE", "lat": 51.6224859, "lng": -0.2893569}, {"name": "Prince of Wales Primary School", "phase": "Primary", "authority": "Enfield", "region": "London and West", "postcode": "EN3 6HG", "town": "LONDON", "address": "Salisbury Road \nEnfield LONDON EN3 6HG", "lat": 51.6697848, "lng": -0.0224933}, {"name": "The Totteridge Academy", "phase": "Secondary", "authority": "Barnet", "region": "London and West", "postcode": "N20 8AZ", "town": "nan", "address": "Barnet Lane N20 8AZ", "lat": 51.6388434, "lng": -0.2003696}, {"name": "Deansbrook Primary", "phase": "Primary", "authority": "Barnet", "region": "London and West", "postcode": "NW7 3ED", "town": "London", "address": "Hale Drive London NW7 3ED", "lat": 51.6126431, "lng": -0.2620537}, {"name": "Forest School", "phase": "All through", "authority": "Waltham Forest", "region": "London and South", "postcode": "E17 3PY", "town": "SNARESBROOK", "address": "College Place SNARESBROOK E17 3PY", "lat": 51.585587, "lng": 0.0093303}, {"name": "Lammas School and Sixth Form", "phase": "Secondary", "authority": "Waltham Forest", "region": "London and South", "postcode": "E10 7LX", "town": "LONDON", "address": "150 Seymour Road\nLeyton LONDON E10 7LX", "lat": 51.5659832, "lng": -0.0256298}, {"name": "London Fields", "phase": "Primary", "authority": "Hackney", "region": "London and South", "postcode": "E8 3RL", "town": "LONDON", "address": "Westgate Street LONDON E8 3RL", "lat": 51.5375098, "lng": -0.0594095}, {"name": "Riverley", "phase": "Primary", "authority": "Walthamstow", "region": "London and South", "postcode": "E10 7BZ", "town": "London", "address": "40 Park Road London E10 7BZ", "lat": 51.5666398, "lng": -0.0192381}, {"name": "Willow Brook Primary", "phase": "Primary", "authority": "Walthamstow", "region": "London and South", "postcode": "E10 7BH", "town": "London", "address": "190 Church Road London E10 7BH", "lat": 51.5650498, "lng": -0.0204038}, {"name": "Ark Burlington Danes Academy", "phase": "Secondary", "authority": "Hammersmith and Fulham", "region": "London and West", "postcode": "W12 0HR", "town": "LONDON", "address": "Wood Lane LONDON London W12 0HR", "lat": 51.518921, "lng": -0.2298922}, {"name": "Avondale Park Primary School", "phase": "Primary", "authority": "Kensington and Chelsea", "region": "London and West", "postcode": "W11 4EE", "town": "LONDON", "address": "Sirdar Road LONDON W11 4EE", "lat": 51.5108906, "lng": -0.2144521}, {"name": "Fox Primary School", "phase": "Primary", "authority": "Kensington and Chelsea", "region": "London and West", "postcode": "W8 7PP", "town": "LONDON", "address": "Kensington Place LONDON W8 7PP", "lat": 51.5074897, "lng": -0.1967021}, {"name": "Kensington Aldridge Academy", "phase": "Secondary", "authority": "Kensington and Chelsea", "region": "London and West", "postcode": "W10 6EX", "town": "LONDON", "address": "1 Silchester Road LONDON W10 6EX", "lat": 51.5144109, "lng": -0.2153233}, {"name": "Lady Margaret School", "phase": "Secondary", "authority": "Hammersmith and Fulham", "region": "London and West", "postcode": "SW6 4UN", "town": "LONDON", "address": "Parson's Green LONDON SW6 4UN", "lat": 51.4741818, "lng": -0.1996431}, {"name": "Reach Academy Feltham", "phase": "All Through", "authority": "Hounslow", "region": "London and West", "postcode": "TW13 4AB", "town": "LONDON", "address": "53-55 High Street \nFeltham LONDON TW13 4AB", "lat": 51.4435533, "lng": -0.4111546}, {"name": "Ark Acton", "phase": "Secondary", "authority": "Acton", "region": "London and West", "postcode": "W3 8EY", "town": "London", "address": "Gunnersbury Lane  London W3 8EY", "lat": 51.505614, "lng": -0.2801781}, {"name": "The Kingston Academy", "phase": "Secondary", "authority": "Kingston upon Thames", "region": "London and West", "postcode": "KT2 5PE", "town": "KINGSTON UPON THAMES", "address": "Richmond Road KINGSTON UPON THAMES Surrey KT2 5PE", "lat": 51.423334, "lng": -0.3018089}, {"name": "Ark Elvin Academy", "phase": "Secondary", "authority": "Brent", "region": "London and West", "postcode": "HA9 7DU", "town": "LONDON", "address": "Cecil Avenue \nWembley \nMiddlesex LONDON HA9 7DU", "lat": 51.5522445, "lng": -0.2909979}, {"name": "Brentfield Primary School", "phase": "Primary", "authority": "Brent", "region": "London and West", "postcode": "NW10 0SL", "town": "LONDON", "address": "41 \u2013 43 Meadow Garth, \nNeasden LONDON NW10 0SL", "lat": 51.547025, "lng": -0.2637764}, {"name": "East Lane Primary School", "phase": "Primary", "authority": "Brent", "region": "London and West", "postcode": "HA0 3NT", "town": "WEMBLEY", "address": "East Lane WEMBLEY Middlesex HA0 3NT", "lat": 51.5631729, "lng": -0.3104405}, {"name": "Furness Primary School", "phase": "Primary", "authority": "Brent", "region": "London and West", "postcode": "NW10 5YT", "town": "LONDON", "address": "Furness Road\nHarlesden LONDON NW10 5YT", "lat": 51.5338354, "lng": -0.2385848}, {"name": "Gladstone Park Primary School", "phase": "Primary", "authority": "Brent", "region": "London and West", "postcode": "NW10 1LB", "town": "LONDON", "address": "Sherrick Green Road\nWillesden LONDON NW10 1LB", "lat": 51.5518153, "lng": -0.2310966}, {"name": "Oakington Manor Primary School", "phase": "Primary", "authority": "Brent", "region": "London and West", "postcode": "HA9 6NF", "town": "LONDON", "address": "Oakington Manor Drive\nWembley LONDON Middlesex HA9 6NF", "lat": 51.5519636, "lng": -0.2724303}, {"name": "Park Lane Primary School", "phase": "Primary", "authority": "Brent", "region": "London and West", "postcode": "HA9 7RY", "town": "LONDON", "address": "Park Lane \nWembley LONDON HA9 7RY", "lat": 51.5558829, "lng": -0.2938475}, {"name": "Preston Park Primary School", "phase": "Primary", "authority": "Brent", "region": "London and West", "postcode": "HA9 8RJ", "town": "WEMBLEY", "address": "College Road WEMBLEY HA9 8RJ", "lat": 51.5719514, "lng": -0.3006199}, {"name": "Salusbury Primary School", "phase": "Primary", "authority": "Brent", "region": "London and West", "postcode": "NW6 6RG", "town": "LONDON", "address": "Salusbury Road \nKilburn LONDON NW6 6RG", "lat": 51.537703, "lng": -0.2065969}, {"name": "Sudbury Primary School", "phase": "Primary", "authority": "Brent", "region": "London and West", "postcode": "HA0 3EY", "town": "WEMBLEY", "address": "Watford Road WEMBLEY HA0 3EY", "lat": 51.5594831, "lng": -0.3202573}, {"name": "Wembley High Technology College", "phase": "Secondary", "authority": "Brent", "region": "London and West", "postcode": "HA0 3NT", "town": "WEMBLEY", "address": "East Lane\nEast Lane WEMBLEY Middlesex HA0 3NT", "lat": 51.5631729, "lng": -0.3104405}, {"name": "Claremont High", "phase": "Secondary", "authority": "Brent", "region": "London North West", "postcode": "HA3 0UH", "town": "LONDON", "address": "Claremont Avenue, Kenton LONDON HA3 0UH", "lat": 51.5851631, "lng": -0.2933284}, {"name": "Belvedere Infant School", "phase": "Primary", "authority": "Bexley", "region": "London and South", "postcode": "DA17 6AA", "town": "BELVEDERE", "address": "Mitchell Close\n\n BELVEDERE Kent DA17 6AA", "lat": 51.4910006, "lng": 0.1596669}, {"name": "Castle Hill Academy", "phase": "Primary", "authority": "Croydon", "region": "London and South", "postcode": "CR0 0RJ", "town": "SURREY", "address": "Dunley Drive\nNew Addington\nCroydon SURREY CR0 0RJ", "lat": 51.3546341, "lng": -0.0169783}, {"name": "Croydon High School", "phase": "All Through", "authority": "Croydon", "region": "London and South", "postcode": "CR2 8YB", "town": "SOUTH CROYDON", "address": "Old Farleigh Road\nSelsdon SOUTH CROYDON Surrey CR2 8YB", "lat": 51.3412461, "lng": -0.0617075}, {"name": "South Norwood Primary", "phase": "Primary", "authority": "Croydon", "region": "London and South", "postcode": "SE25 5QP", "town": "LONDON", "address": "34 Crowther Road\nSouth Norwood LONDON SE25 5QP", "lat": 51.3954122, "lng": -0.0727589}, {"name": "The Crescent Primary School", "phase": "Primary", "authority": "Croydon", "region": "London and South", "postcode": "CR0 2HN", "town": "CROYDON", "address": "Selhurst CROYDON CR0 2HN", "lat": 51.3903954, "lng": -0.0926183}, {"name": "Woodcote Primary School", "phase": "Primary", "authority": "Croydon", "region": "London and South", "postcode": "CR5 2ED", "town": "COULSDON", "address": "Dunsfold Rise COULSDON Surrey CR5 2ED", "lat": 51.3294208, "lng": -0.1393466}, {"name": "Allfarthing Primary School", "phase": "Primary", "authority": "Wandsworth", "region": "London and West", "postcode": "SW18 2LR", "town": "LONDON", "address": "St Ann's Crescent \nWandsworth LONDON SW18 2LR", "lat": 51.4542179, "lng": -0.1861936}, {"name": "Honeywell Infant School", "phase": "Primary", "authority": "Wandsworth", "region": "London and West", "postcode": "SW11 6EF", "town": "LONDON", "address": "Honeywell Road  \nBattersea LONDON SW11 6EF", "lat": 51.4547389, "lng": -0.1619055}, {"name": "Honeywell Junior School", "phase": "Primary", "authority": "Wandsworth", "region": "London and West", "postcode": "SW11 6EF", "town": "LONDON", "address": "Honeywell Road\nBattersea LONDON SW11 6EF", "lat": 51.4547389, "lng": -0.1619055}, {"name": "Smallwood Primary School and Language Unit", "phase": "Primary", "authority": "Wandsworth", "region": "London and West", "postcode": "SW17 0TW", "town": "LONDON", "address": "Smallwood Road \nGarratt Lane LONDON SW17 0TW", "lat": 51.4312153, "lng": -0.1780991}, {"name": "St Anselm's Catholic Primary School", "phase": "Primary", "authority": "Wandsworth", "region": "London and West", "postcode": "SW17 8BS", "town": "nan", "address": "19 Tooting Bec Road \nTooting Bec London SW17 8BS", "lat": 51.4356878, "lng": -0.1575915}, {"name": "Furzedown Primary", "phase": "Primary", "authority": "Wandsworth", "region": "London and West", "postcode": "SW17 9TJ", "town": "London", "address": "Beclands Road London SW17 9TJ", "lat": 51.421958, "lng": -0.1531383}, {"name": "Albion Primary School", "phase": "Primary", "authority": "Southwark", "region": "London and South", "postcode": "SE16 7JD", "town": "LONDON", "address": "Albion Street\nRotherhithe LONDON SE16 7JD", "lat": 51.5000722, "lng": -0.0517344}, {"name": "Ark Globe Academy", "phase": "All Through", "authority": "Southwark", "region": "London and South", "postcode": "SE1 6AG", "town": "LONDON", "address": "Harper Road LONDON SE1 6AG", "lat": 51.4955975, "lng": -0.090218}, {"name": "Ark Walworth Academy", "phase": "Secondary", "authority": "Southwark", "region": "London and South", "postcode": "SE1 5UJ", "town": "LONDON", "address": "Shorncliffe Road LONDON SE1 5UJ", "lat": 51.487095, "lng": -0.0794823}, {"name": "Deptford Green School", "phase": "Secondary", "authority": "Lewisham", "region": "London and South", "postcode": "SE14 6AN", "town": "LONDON", "address": "Edward Street \nNew Cross LONDON SE14 6AN", "lat": 51.4782503, "lng": -0.0357575}, {"name": "Marvels Lane Primary School", "phase": "Primary", "authority": "Lewisham", "region": "London and South", "postcode": "SE12 9RA", "town": "LONDON", "address": "Riddons Road \nGrove Park LONDON SE12 9RA", "lat": 51.4291783, "lng": 0.0327283}, {"name": "Prendergast Vale School", "phase": "All Through", "authority": "Lewisham", "region": "London and South", "postcode": "SE13 7BN", "town": "LONDON", "address": "Elmira Street, Lewisham LONDON SE13 7BN", "lat": 51.4635658, "lng": -0.0160314}, {"name": "Riverside Primary School", "phase": "Primary", "authority": "Southwark", "region": "London and South", "postcode": "SE16 4PS", "town": "LONDON", "address": "Janeway Street \nRotherhithe LONDON SE16 4PS", "lat": 51.4991315, "lng": -0.0638914}, {"name": "Surrey Square Primary School", "phase": "Primary", "authority": "Southwark", "region": "London and South", "postcode": "SE17 2JY", "town": "LONDON", "address": "Surrey Square LONDON SE17 2JY", "lat": 51.4887442, "lng": -0.0829997}, {"name": "James Wolfe Primary School and Centre for the Deaf", "phase": "Primary", "authority": "Greenwich", "region": "London and South", "postcode": "SE10 9LA", "town": "LONDON", "address": "Randall Place \nGreenwich LONDON SE10 9LA", "lat": 51.4796513, "lng": -0.0126979}, {"name": "Morden Mount Primary School", "phase": "Primary", "authority": "Greenwich", "region": "London and South", "postcode": "SE13 7QP", "town": "LONDON", "address": "Lewisham Road LONDON SE13 7QP", "lat": 51.4701572, "lng": -0.0144207}, {"name": "Oasis Academy South Bank", "phase": "Secondary", "authority": "Lambeth", "region": "London and South", "postcode": "SE1 7HS", "town": "LONDON", "address": "75 Westminster Bridge Road LONDON SE1 7HS", "lat": 51.4984821, "lng": -0.1117518}, {"name": "Saint Gabriel's College", "phase": "Secondary", "authority": "Lambeth", "region": "London and South", "postcode": "SW9 6UL", "town": "LONDON", "address": "Upper School: Brooke Building \nCormont Road \nCamberwell LONDON SW9 6UL", "lat": 51.4759758, "lng": -0.1024139}, {"name": "Trinity Academy", "phase": "Secondary", "authority": "Brixton", "region": "London and South", "postcode": "SW2 1QS", "town": "London", "address": "56 Brixton Hill London SW2 1QS", "lat": 51.4565315, "lng": -0.1195722}, {"name": "Earlsfield Primary School", "phase": "Primary", "authority": "Wandsworth", "region": "London and West", "postcode": "SW18 3QQ", "town": "LONDON", "address": "Tranmere Road\nEarlsfield LONDON SW18 3QQ", "lat": 51.441436, "lng": -0.1859662}, {"name": "Heathmere Primary School", "phase": "Primary", "authority": "Wandsworth", "region": "London and West", "postcode": "SW15 4LJ", "town": "LONDON", "address": "Alton Road LONDON SW15 4LJ", "lat": 51.4446729, "lng": -0.2414133}, {"name": "Holy Ghost Catholic Primary School", "phase": "Primary", "authority": "Wandsworth", "region": "London and West", "postcode": "SW12 8QJ", "town": "LONDON", "address": "Nightingale Square\nBalham LONDON SW12 8QJ", "lat": 51.4478805, "lng": -0.1563668}, {"name": "Penwortham Primary School", "phase": "Primary", "authority": "Wandsworth", "region": "London and West", "postcode": "SW16 6RJ", "town": "LONDON", "address": "Penwortham Road \nStreatham LONDON SW16 6RJ", "lat": 51.4223918, "lng": -0.1458716}, {"name": "Roehampton CofE Primary School", "phase": "Primary", "authority": "Wandsworth", "region": "London and West", "postcode": "SW15 4AA", "town": "LONDON", "address": "245 Roehampton Lane LONDON SW15 4AA", "lat": 51.4482656, "lng": -0.2375335}, {"name": "Sellincourt Primary School", "phase": "Primary", "authority": "Wandsworth", "region": "London and West", "postcode": "SW17 9SA", "town": "LONDON", "address": "Sellincourt Rd  \nTooting LONDON SW17 9SA", "lat": 51.4231735, "lng": -0.1675593}, {"name": "The Alton School", "phase": "Primary", "authority": "Wandsworth", "region": "London and West", "postcode": "SW15 4PD", "town": "LONDON", "address": "Danebury Avenue\nRoehampton LONDON SW15 4PD", "lat": 51.4527581, "lng": -0.2535092}, {"name": "Trinity St Mary's CofE Primary School", "phase": "Primary", "authority": "Wandsworth", "region": "London and West", "postcode": "SW12 8DR", "town": "LONDON", "address": "6 Balham Park Road\nBalham LONDON SW12 8DR", "lat": 51.4425675, "lng": -0.1553289}, {"name": "Coston Primary School", "phase": "Primary", "authority": "Ealing", "region": "London and West", "postcode": "UB6 9JU", "town": "GREENFORD", "address": "Oldfield Lane South GREENFORD Middlesex UB6 9JU", "lat": 51.5343797, "lng": -0.3515322}, {"name": "Gifford Primary School", "phase": "Primary", "authority": "Ealing", "region": "London and West", "postcode": "UB5 6BU", "town": "LONDON", "address": "Greenhill Gardens \nNortholt LONDON UB5 6BU", "lat": 51.5359619, "lng": -0.3760015}, {"name": "Greenwood Primary School", "phase": "Primary", "authority": "Ealing", "region": "London and West", "postcode": "UB5 4QG", "town": "LONDON", "address": "Wood End Way \nNortholt LONDON UB5 4QG", "lat": 51.5541637, "lng": -0.3503267}, {"name": "Heathland School", "phase": "Primary", "authority": "Harrow", "region": "London and West", "postcode": "HA2 9AG", "town": "LONDON", "address": "Eastcote Lane \nSouth Harrow LONDON Middlesex HA2 9AG", "lat": 51.5636547, "lng": -0.3692874}, {"name": "North Ealing Primary School", "phase": "Primary", "authority": "Ealing", "region": "London and West", "postcode": "W5 1RP", "town": "LONDON", "address": "Pitshanger Lane \nEaling LONDON W5 1RP", "lat": 51.5259101, "lng": -0.3180333}, {"name": "Oak Wood School", "phase": "Secondary", "authority": "Hillingdon", "region": "London and West", "postcode": "UB10 9HT", "town": "UXBRIDGE", "address": "Sutton Court Road\nHillingdon UXBRIDGE Middlesex UB10 9HT", "lat": 51.5402729, "lng": -0.4439543}, {"name": "Ravenor Primary School", "phase": "Primary", "authority": "Ealing", "region": "London and West", "postcode": "UB6 9TT", "town": "LONDON", "address": "Greenway Gardens \nGreenford\nEaling LONDON UB6 9TT", "lat": 51.5322912, "lng": -0.3648575}, {"name": "St John's Primary School", "phase": "Primary", "authority": "Ealing", "region": "London and West", "postcode": "W13 0NY", "town": "LONDON", "address": "Greenman Gardens LONDON W13 0NY", "lat": 51.5124578, "lng": -0.3249563}, {"name": "Swakeleys School for Girls", "phase": "Secondary", "authority": "Hillingdon", "region": "London and West", "postcode": "UB10 0EJ", "town": "UXBRIDGE", "address": "Clifton Gardens\nHillingdon UXBRIDGE UB10 0EJ", "lat": 51.5373112, "lng": -0.4450646}, {"name": "Willow Tree Primary School", "phase": "Primary", "authority": "Ealing", "region": "London and West", "postcode": "UB5 5FE", "town": "LONDON", "address": "Priors Farm Lane \nNortholt\nEaling LONDON UB5 5FE", "lat": 51.5502061, "lng": -0.3779896}, {"name": "Bidston Avenue Primary School", "phase": "Primary", "authority": "Wirral", "region": "The North of England", "postcode": "CH41 0DQ", "town": "BIRKENHEAD", "address": "Tollemache Road\nClaughton BIRKENHEAD Merseyside CH41 0DQ", "lat": 53.3954153, "lng": -3.061791}, {"name": "Devonshire Park Primary School", "phase": "Primary", "authority": "Wirral", "region": "The North of England", "postcode": "CH42 9JX", "town": "PRENTON", "address": "Temple Road PRENTON Birkenhead CH42 9JX", "lat": 53.3755156, "lng": -3.0339228}, {"name": "Park Primary School", "phase": "Primary", "authority": "Wirral", "region": "The North of England", "postcode": "CH44 5RN", "town": "WALLASEY", "address": "Love Lane WALLASEY Merseyside CH44 5RN", "lat": 53.414735, "lng": -3.0472718}, {"name": "Cotsford Primary School", "phase": "Primary", "authority": "Durham", "region": "The North of England", "postcode": "SR8 4EH", "town": "PETERLEE", "address": "Third Street\nHorden PETERLEE Co. Durham SR8 4EH", "lat": 54.7621416, "lng": -1.311351}, {"name": "Ribbon School", "phase": "Primary", "authority": "Durham", "region": "The North of England", "postcode": "SR7 9QR", "town": "SEAHAM", "address": "Barnes Road \nMurton SEAHAM Co. Durham SR7 9QR", "lat": 54.8194104, "lng": -1.3879265}, {"name": "Ropery Walk Primary School", "phase": "Primary", "authority": "Durham", "region": "The North of England", "postcode": "SR7 7JZ", "town": "SEAHAM", "address": "Ropery Walk SEAHAM Co. Durham SR7 7JZ", "lat": 54.8336363, "lng": -1.3316815}, {"name": "Rossmere Academy", "phase": "Primary", "authority": "Hartlepool", "region": "The North of England", "postcode": "TS25 3JL", "town": "HARTLEPOOL", "address": "Catcote Road HARTLEPOOL West Midlands TS25 3JL", "lat": 54.6607802, "lng": -1.2350436}, {"name": "Seaham Trinity Primary School", "phase": "Primary", "authority": "Durham", "region": "The North of England", "postcode": "SR7 7SP", "town": "DURHAM", "address": "Princess Road\nSeaham DURHAM SR7 7SP", "lat": 54.8353949, "lng": -1.3410405}, {"name": "Seascape Primary School", "phase": "Primary", "authority": "Durham", "region": "The North of England", "postcode": "SR8 5NJ", "town": "PETERLEE", "address": "Ellison Road PETERLEE Co. Durham SR8 5NJ", "lat": 54.7635667, "lng": -1.3266972}, {"name": "Timothy Hackworth Primary School", "phase": "Primary", "authority": "Durham", "region": "The North of England", "postcode": "DL4 1HN", "town": "SHILDON", "address": "Byerley Road SHILDON County Durham DL4 1HN", "lat": 54.6270095, "lng": -1.6493762}, {"name": "Easington Colliery Primary School", "phase": "Primary", "authority": "Durham", "region": "The North of England", "postcode": "SR8 3DJ", "town": "PETERLEE", "address": "Whickham Street\nEasington Colliery PETERLEE Co. Durham SR8 3DJ", "lat": 54.7873827, "lng": -1.3400017}, {"name": "Mill Hill Primary School", "phase": "Primary", "authority": "Sunderland", "region": "The North of England", "postcode": "SR3 2LE", "town": "SUNDERLAND", "address": "Doxford Park SUNDERLAND Tyne And Wear SR3 2LE", "lat": 54.866072, "lng": -1.4067272}, {"name": "Northern Saints Church of England Academy", "phase": "Primary", "authority": "Sunderland", "region": "The North of England", "postcode": "SR5 5QL", "town": "SUNDERLAND", "address": "Rotherham Road SUNDERLAND Tyne And Wear SR5 5QL", "lat": 54.9240025, "lng": -1.4300446}, {"name": "Balgreen Primary School", "phase": "Primary", "authority": "City of Edinburgh", "region": "Scotland", "postcode": "EH11 3AT", "town": "EDINBURGH", "address": "171 Balgreen Road EDINBURGH Midlothian EH11 3AT", "lat": 55.9373299, "lng": -3.248376}, {"name": "Canal View Primary School", "phase": "Primary", "authority": "City of Edinburgh", "region": "Scotland", "postcode": "EH14 2SL", "town": "EDINBURGH", "address": "4 Hailesland Place EDINBURGH EH14 2SL", "lat": 55.9167726, "lng": -3.2797161}, {"name": "Craigroyston Primary School", "phase": "Primary", "authority": "City of Edinburgh", "region": "Scotland", "postcode": "EH4 4PX", "town": "EDINBURGH", "address": "7 Muirhouse Place West EDINBURGH EH4 4PX", "lat": 55.96925, "lng": -3.2542266}, {"name": "ESMS Junior School", "phase": "Primary", "authority": "City of Edinburgh", "region": "Scotland", "postcode": "EH4 3EZ", "town": "EDINBURGH", "address": "11 Queensferry Terrace EDINBURGH EH4 3EZ", "lat": 55.9537683, "lng": -3.2265152}, {"name": "Forthview Primary School", "phase": "Primary", "authority": "City of Edinburgh", "region": "Scotland", "postcode": "EH4 4DF", "town": "EDINBURGH", "address": "West Pilton Place EDINBURGH Midlothian EH4 4DF", "lat": 55.9709219, "lng": -3.2408536}, {"name": "Longstone Primary School", "phase": "Primary", "authority": "City of Edinburgh", "region": "Scotland", "postcode": "EH14 2DU", "town": "EDINBURGH", "address": "Redhall Grove EDINBURGH EH14 2DU", "lat": 55.9215019, "lng": -3.2611491}, {"name": "Niddrie Mill Primary School", "phase": "Primary", "authority": "City of Edinburgh", "region": "Scotland", "postcode": "EH16 4PY", "town": "EDINBURGH", "address": "20 Moffat Way EDINBURGH EH16 4PY", "lat": 55.9339322, "lng": -3.1263862}, {"name": "St John Vianney Roman Catholic Primary School", "phase": "Primary", "authority": "City of Edinburgh", "region": "Scotland", "postcode": "EH16 6AU", "town": "EDINBURGH", "address": "17 Ivanhoe Crescent EDINBURGH EH16 6AU", "lat": 55.9189225, "lng": -3.1578251}, {"name": "Stewart's Melville College", "phase": "Secondary", "authority": "City of Edinburgh", "region": "Scotland", "postcode": "EH4 3EZ", "town": "EDINBURGH", "address": "Queensferry Road EDINBURGH EH4 3EZ", "lat": 55.9537683, "lng": -3.2265152}, {"name": "The Mary Erskine School", "phase": "Secondary", "authority": "City of Edinburgh", "region": "Scotland", "postcode": "EH4 3NT", "town": "EDINBURGH", "address": "Ravelston EDINBURGH EH4 3NT", "lat": 55.9528606, "lng": -3.254209}, {"name": "Fernielea Primary School", "phase": "Primary", "authority": "Aberdeen", "region": "Scotland", "postcode": "AB15 6HD", "town": "ABERDEEN", "address": "Stronsay Place ABERDEEN AB15 6HD", "lat": 57.1487516, "lng": -2.1593031}, {"name": "Quarryhill Primary School", "phase": "Primary", "authority": "Aberdeen", "region": "Scotland", "postcode": "AB16 5QT", "town": "ABERDEEN", "address": "Birkhall Parade ABERDEEN AB16 5QT", "lat": 57.1607282, "lng": -2.1575196}, {"name": "Hazlehead Academy", "phase": "Secondary", "authority": "Aberdeen", "region": "Scotland", "postcode": "AB15 8BE", "town": "ABERDEEN", "address": "Groats Rd ABERDEEN AB15 8BE", "lat": 57.144261, "lng": -2.1786015}, {"name": "Holy Cross Primary School", "phase": "Primary", "authority": "Glasgow City", "region": "Scotland", "postcode": "G42 7NH", "town": "GLASGOW", "address": "316 Calder Street GLASGOW G42 7NH", "lat": 55.8363001, "lng": -4.2550375}, {"name": "Oakwood Primary School", "phase": "Primary", "authority": "Glasgow City", "region": "Scotland", "postcode": "G34 0JD", "town": "GLASGOW", "address": "22 Drumlanrig Avenue GLASGOW G34 0JD", "lat": 55.8690527, "lng": -4.0995124}, {"name": "Gowanbank", "phase": "Primary", "authority": "Glasgow City", "region": "Scotland", "postcode": "G53 6RA", "town": "GLASGOW", "address": "1 Craigbank Drive GLASGOW G53 6RA", "lat": 55.8163135, "lng": -4.3623857}, {"name": "St Catherine's Primary School", "phase": "Primary", "authority": "Glasgow City", "region": "Scotland", "postcode": "G21 3JR", "town": "GLASGOW", "address": "274 Rye Road GLASGOW G21 3JR", "lat": 55.8879562, "lng": -4.207164}, {"name": "St Monica's (Milton) Primary School", "phase": "Primary", "authority": "Glasgow City", "region": "Scotland", "postcode": "G22 7QX", "town": "GLASGOW", "address": "200 Liddesdale Road GLASGOW Glasgow City Centre G22 7QX", "lat": 55.8972064, "lng": -4.2452948}, {"name": "St Paul's Primary School", "phase": "Primary", "authority": "Renfrewshire", "region": "Scotland", "postcode": "PA2 9FA", "town": "PAISLEY", "address": "Morar Drive, Foxbar,  PAISLEY Renfrewshire PA2 9FA", "lat": 55.8297682, "lng": -4.4611299}, {"name": "Grange Town Primary", "phase": "Primary", "authority": "Cardiff", "region": "Midlands and Wales", "postcode": "CF11 7XS", "town": "CARDIFF", "address": "Bromsgrove Street\nGrangetown CARDIFF CF11 7XS", "lat": 51.4658591, "lng": -3.1832432}, {"name": "Moorland Primary School", "phase": "Primary", "authority": "Cardiff", "region": "Midlands and Wales", "postcode": "CF24 2LJ", "town": "CARDIFF", "address": "Singleton Road\nSplott CARDIFF CF24 2LJ", "lat": 51.4800534, "lng": -3.145622}, {"name": "Rye College", "phase": "Secondary", "authority": "East Sussex", "region": "London and South", "postcode": "TN31 7NQ", "town": "RYE", "address": "The Grove RYE East Sussex TN31 7NQ", "lat": 50.9550534, "lng": 0.73165}, {"name": "The Brakenhale School", "phase": "Secondary", "authority": "Bracknell Forest", "region": "London and West", "postcode": "RG12 7BA", "town": "BRACKNELL", "address": "Rectory Lane BRACKNELL Berkshire RG12 7BA", "lat": 51.4065436, "lng": -0.7508179}, {"name": "The Langley Academy", "phase": "Secondary", "authority": "Slough", "region": "London and West", "postcode": "SL3 7EF", "town": "SLOUGH", "address": "Langley Road\nLangley SLOUGH Berkshire SL3 7EF", "lat": 51.5045887, "lng": -0.553293}, {"name": "The Langley Academy Primary", "phase": "Primary", "authority": "Slough", "region": "London and West", "postcode": "SL3 7EF", "town": "SLOUGH", "address": "Langley Road\nLangley SLOUGH Berkshire SL3 7EF", "lat": 51.5045887, "lng": -0.553293}, {"name": "Ditton Park Academy", "phase": "Secondary", "authority": "Slough", "region": "London and West", "postcode": "SL3 7UX", "town": "SLOUGH", "address": "Kings Reach SLOUGH Berkshire SL3 7UX", "lat": 51.4977456, "lng": -0.5723677}, {"name": "Cranbrook School", "phase": "Secondary", "authority": "Kent", "region": "London and South", "postcode": "TN17 3JD", "town": "CRANBROOK", "address": "Waterloo Road CRANBROOK Kent TN17 3JD", "lat": 51.0969278, "lng": 0.5382918}, {"name": "St Gregory's Catholic School", "phase": "Secondary", "authority": "Kent", "region": "London and South", "postcode": "TN4 9XL", "town": "TUNBRIDGE WELLS", "address": "Reynolds Lane TUNBRIDGE WELLS Kent TN4 9XL", "lat": 51.1474414, "lng": 0.2537289}, {"name": "St Simon Stock Catholic School", "phase": "Secondary", "authority": "Kent", "region": "London and South", "postcode": "ME16 0JP", "town": "MAIDSTONE", "address": "Oakwood Park MAIDSTONE Kent ME16 0JP", "lat": 51.2731058, "lng": 0.4965901}, {"name": "Ark Boulton Academy", "phase": "Secondary", "authority": "Birmingham", "region": "Midlands and Wales", "postcode": "B11 2QG", "town": "BIRMINGHAM", "address": "Golden Hillock Road\nSparkhill BIRMINGHAM West Midlands B11 2QG", "lat": 52.4584663, "lng": -1.8606016}, {"name": "Bentley West Primary School Additionally Resourced for Hearing Impaired", "phase": "Primary", "authority": "Walsall", "region": "Midlands and Wales", "postcode": "WS2 0EQ", "town": "WALSALL", "address": "Monmouth Road\nBentley WALSALL West Midlands WS2 0EQ", "lat": 52.58995, "lng": -2.0278991}, {"name": "Grace Academy", "phase": "Secondary", "authority": "Birmingham", "region": "Midlands and Wales", "postcode": "B37 5JS", "town": "BIRMINGHAM", "address": "Chapel House Road BIRMINGHAM West Midlands B37 5JS", "lat": 52.4752239, "lng": -1.755371}, {"name": "King Edward VI Lordswood School for Girls", "phase": "Secondary", "authority": "Birmingham", "region": "Midlands and Wales", "postcode": "B17 8QB", "town": "BIRMINGHAM", "address": "Knightlow Road, \nHarborne, BIRMINGHAM B17 8QB", "lat": 52.4687551, "lng": -1.9632141}, {"name": "Sandwell Academy", "phase": "Secondary", "authority": "Sandwell", "region": "Midlands and Wales", "postcode": "B71 4LG", "town": "WEST BROMWICH", "address": "Halfords Lane WEST BROMWICH West Midlands B71 4LG", "lat": 52.5070351, "lng": -1.9659228}, {"name": "The Priory", "phase": "All Through", "authority": "Birmingham", "region": "Midlands and Wales", "postcode": "B15 2UR", "town": "Edgbaston", "address": "39 Sir Harry\u2019s Road Edgbaston Birmingham B15 2UR", "lat": 52.461089, "lng": -1.9150344}, {"name": "Allerton High School", "phase": "Secondary", "authority": "Leeds", "region": "The North of England", "postcode": "LS17 7AG", "town": "LEEDS", "address": "King Lane LEEDS West Yorkshire LS17 7AG", "lat": 53.8504785, "lng": -1.5527402}, {"name": "Beechwood Primary School", "phase": "Primary", "authority": "Leeds", "region": "The North of England", "postcode": "LS14 6QB", "town": "LEEDS", "address": "Kentmere Avenue \nSeacroft LEEDS Yorkshire LS14 6QB", "lat": 53.8186536, "lng": -1.4692942}, {"name": "Bruntcliffe Academy", "phase": "Secondary", "authority": "Leeds", "region": "The North of England", "postcode": "LS27 0LZ", "town": "LEEDS", "address": "Bruntcliffe Lane\nMorley LEEDS West Yorkshire LS27 0LZ", "lat": 53.744953, "lng": -1.6215172}, {"name": "Grange Farm Primary School", "phase": "Primary", "authority": "Leeds", "region": "The North of England", "postcode": "LS14 1AX", "town": "LEEDS", "address": "Barncroft Rise LEEDS West Yorkshire LS14 1AX", "lat": 53.8277868, "lng": -1.473691}, {"name": "Hugh Gaitskell Primary School", "phase": "Primary", "authority": "Leeds", "region": "The North of England", "postcode": "LS11 8AB", "town": "LEEDS", "address": "St Anthony\u2019s Drive LEEDS LS11 8AB", "lat": 53.7718022, "lng": -1.5663062}, {"name": "John Smeaton Academy", "phase": "Secondary", "authority": "Leeds", "region": "The North of England", "postcode": "LS15 8TA", "town": "LEEDS", "address": "Smeaton Approach \nBarwick Road LEEDS LS15 8TA", "lat": 53.8154402, "lng": -1.4347966}, {"name": "The Morley Academy", "phase": "Secondary", "authority": "Leeds", "region": "The North of England", "postcode": "LS27 0PD", "town": "WEST YORKSHIRE", "address": "Fountain Street  \nMorley \nLeeds WEST YORKSHIRE LS27 0PD", "lat": 53.7432598, "lng": -1.6010635}, {"name": "Boston Spa Academy", "phase": "Secondary", "authority": "Leeds", "region": "The North of England", "postcode": "LS23 6RW", "town": "WETHERBY", "address": "Clifford Moor Road\nBoston Spa WETHERBY West Yorkshire LS23 6RW", "lat": 53.900102, "lng": -1.3620039}]